$GPZDA,144937.40,09,08,2024,00,00*6B
$GPGGA,144937.40,4816.5885360,N,00333.1099140,W,1,09,,158.13,M,49.060,M,,*6D
$GPRMC,144937.40,A,4816.5885360,N,00333.1099140,W,0.0214,0.000,090824,-1.0,W*45
$GPGSA,A,3,4,5,6,7,9,11,20,,,,,,,,*27
$GPZDA,144937.50,09,08,2024,00,00*6A
$GPGGA,144937.50,4816.5885420,N,00333.1099140,W,1,09,,158.13,M,49.060,M,,*6F
$GPRMC,144937.50,A,4816.5885420,N,00333.1099140,W,0.0214,0.000,090824,-1.0,W*47
$GPGSA,A,3,4,5,6,7,9,11,20,,,,,,,,*27
$GPZDA,144937.60,09,08,2024,00,00*69
$GPGGA,144937.60,4816.5885420,N,00333.1099080,W,1,09,,158.12,M,49.060,M,,*60
$GPRMC,144937.60,A,4816.5885420,N,00333.1099080,W,0.0156,0.000,090824,-1.0,W*4c
$GPGSA,A,3,4,5,6,7,9,11,20,,,,,,,,*27
$GPGSV,3,1,12,04,19,063,39,05,16,298,33,06,44,193,47,07,56,133,47*72
$GPGSV,3,2,12,09,55,061,48,11,57,266,46,20,45,301,43,29,10,324,45*73
$GPGSV,3,3,12,30,36,175,47,33,33,196,00,37,30,148,00,39,28,144,00*79
$GPZDA,144937.70,09,08,2024,00,00*68
$GPGGA,144937.70,4816.5885420,N,00333.1099020,W,1,08,,158.12,M,49.060,M,,*6A
$GPRMC,144937.70,A,4816.5885420,N,00333.1099020,W,0.0292,0.000,090824,-1.0,W*4c
$GPGSA,A,3,4,6,7,9,11,20,,,,,,,,,*12
$GPZDA,144937.90,09,08,2024,00,00*66
$GPGGA,144937.90,4816.5885420,N,00333.1099020,W,1,08,,158.12,M,49.060,M,,*64
$GPRMC,144937.90,A,4816.5885420,N,00333.1099020,W,0.0117,0.000,090824,-1.0,W*4c
$GPGSA,A,3,4,6,7,9,11,20,,,,,,,,,*12
$GPZDA,144938.00,09,08,2024,00,00*60
$GPGGA,144938.00,4816.5885420,N,00333.1098960,W,1,08,,158.11,M,49.060,M,,*6D
$GPRMC,144938.00,A,4816.5885420,N,00333.1098960,W,0.0078,0.000,090824,-1.0,W*4e
$GPGSA,A,3,4,6,7,9,11,20,,,,,,,,,*12
$GPZDA,144938.10,09,08,2024,00,00*61
$GPGGA,144938.10,4816.5885420,N,00333.1098960,W,1,08,,158.11,M,49.060,M,,*6C
$GPRMC,144938.10,A,4816.5885420,N,00333.1098960,W,0.0233,0.000,090824,-1.0,W*42
$GPGSA,A,3,4,6,7,9,11,20,,,,,,,,,*12
$GPZDA,144938.20,09,08,2024,00,00*62
$GPGGA,144938.20,4816.5885480,N,00333.1098900,W,1,08,,158.11,M,49.060,M,,*63
$GPRMC,144938.20,A,4816.5885480,N,00333.1098900,W,0.0253,0.000,090824,-1.0,W*4b
$GPGSA,A,3,4,6,7,9,11,20,,,,,,,,,*12
$GPZDA,144938.30,09,08,2024,00,00*63
$GPGGA,144938.30,4816.5885480,N,00333.1098900,W,1,08,,158.10,M,49.060,M,,*63
$GPRMC,144938.30,A,4816.5885480,N,00333.1098900,W,0.0330,0.000,090824,-1.0,W*4e
$GPGSA,A,3,4,6,7,9,11,20,,,,,,,,,*12
$GPZDA,144938.40,09,08,2024,00,00*64
$GPGGA,144938.40,4816.5885480,N,00333.1098900,W,1,08,,158.09,M,49.060,M,,*6C
$GPRMC,144938.40,A,4816.5885480,N,00333.1098900,W,0.0350,0.000,090824,-1.0,W*4f
$GPGSA,A,3,4,6,7,9,11,20,,,,,,,,,*12
$GPZDA,144938.50,09,08,2024,00,00*65
$GPGGA,144938.50,4816.5885480,N,00333.1098840,W,1,08,,158.09,M,49.060,M,,*68
$GPRMC,144938.50,A,4816.5885480,N,00333.1098840,W,0.0389,0.000,090824,-1.0,W*4f
$GPGSA,A,3,4,6,7,9,11,20,,,,,,,,,*12
$GPZDA,144938.60,09,08,2024,00,00*66
$GPGGA,144938.60,4816.5885480,N,00333.1098840,W,1,08,,158.09,M,49.060,M,,*6B
$GPRMC,144938.60,A,4816.5885480,N,00333.1098840,W,0.0486,0.000,090824,-1.0,W*44
$GPGSA,A,3,4,6,7,9,11,20,,,,,,,,,*12
$GPGSV,4,1,13,04,19,063,39,05,16,298,34,06,44,193,47,07,56,133,47*73
$GPGSV,4,2,13,09,55,061,48,11,57,266,46,20,45,301,43,28,-44,009,00*55
$GPGSV,4,3,13,29,10,324,45,30,36,175,47,33,33,196,00,37,30,148,00*70
$GPGSV,4,4,13,39,28,144,00*4A
$GPZDA,144938.70,09,08,2024,00,00*67
$GPGGA,144938.70,4816.5885480,N,00333.1098780,W,1,09,,158.09,M,49.060,M,,*68
$GPRMC,144938.70,A,4816.5885480,N,00333.1098780,W,0.0058,0.000,090824,-1.0,W*41
$GPGSA,A,3,4,5,6,7,9,11,20,,,,,,,,*27
$GPZDA,144938.90,09,08,2024,00,00*69
$GPGGA,144938.90,4816.5885480,N,00333.1098720,W,1,09,,158.08,M,49.060,M,,*6D
$GPRMC,144938.90,A,4816.5885480,N,00333.1098720,W,0.0389,0.000,090824,-1.0,W*4a
$GPGSA,A,3,4,5,6,7,9,11,20,,,,,,,,*27
$GPZDA,144939.00,09,08,2024,00,00*61
$GPGGA,144939.00,4816.5885480,N,00333.1098720,W,1,09,,158.08,M,49.060,M,,*65
$GPRMC,144939.00,A,4816.5885480,N,00333.1098720,W,0.0214,0.000,090824,-1.0,W*47
$GPGSA,A,3,4,5,6,7,9,11,20,,,,,,,,*27
$GPZDA,144939.10,09,08,2024,00,00*60
$GPGGA,144939.10,4816.5885480,N,00333.1098660,W,1,09,,158.08,M,49.060,M,,*61
$GPRMC,144939.10,A,4816.5885480,N,00333.1098660,W,0.0175,0.000,090824,-1.0,W*47
$GPGSA,A,3,4,5,6,7,9,11,20,,,,,,,,*27
$GPZDA,144939.20,09,08,2024,00,00*63
$GPGGA,144939.20,4816.5885480,N,00333.1098660,W,1,09,,158.08,M,49.060,M,,*62
$GPRMC,144939.20,A,4816.5885480,N,00333.1098660,W,0.0117,0.000,090824,-1.0,W*40
$GPGSA,A,3,4,5,6,7,9,11,20,,,,,,,,*27
$GPZDA,144939.30,09,08,2024,00,00*62
$GPGGA,144939.30,4816.5885480,N,00333.1098600,W,1,09,,158.07,M,49.060,M,,*6A
$GPRMC,144939.30,A,4816.5885480,N,00333.1098600,W,0.0117,0.000,090824,-1.0,W*47
$GPGSA,A,3,4,5,6,7,9,11,20,,,,,,,,*27
$GPZDA,144939.40,09,08,2024,00,00*65
$GPGGA,144939.40,4816.5885540,N,00333.1098540,W,1,09,,158.07,M,49.060,M,,*67
$GPRMC,144939.40,A,4816.5885540,N,00333.1098540,W,0.0078,0.000,090824,-1.0,W*42
$GPGSA,A,3,4,5,6,7,9,11,20,,,,,,,,*27
$GPZDA,144939.50,09,08,2024,00,00*64
$GPGGA,144939.50,4816.5885540,N,00333.1098540,W,1,09,,158.07,M,49.060,M,,*66
$GPRMC,144939.50,A,4816.5885540,N,00333.1098540,W,0.0272,0.000,090824,-1.0,W*4b
$GPGSA,A,3,4,5,6,7,9,11,20,,,,,,,,*27
$GPZDA,144939.60,09,08,2024,00,00*67
$GPGGA,144939.60,4816.5885540,N,00333.1098480,W,1,09,,158.06,M,49.060,M,,*69
$GPRMC,144939.60,A,4816.5885540,N,00333.1098480,W,0.0136,0.000,090824,-1.0,W*46
$GPGSA,A,3,4,5,6,7,9,11,20,,,,,,,,*27
$GPGSV,4,1,13,04,19,063,40,05,16,298,33,06,44,193,47,07,56,133,47*7A
$GPGSV,4,2,13,09,55,061,48,11,57,266,46,20,45,301,43,28,-44,009,00*55
$GPGSV,4,3,13,29,10,324,44,30,36,175,47,33,33,196,00,37,30,148,00*71
$GPGSV,4,4,13,39,28,144,00*4A
$GPZDA,144939.70,09,08,2024,00,00*66
$GPGGA,144939.70,4816.5885540,N,00333.1098420,W,1,09,,158.06,M,49.060,M,,*62
$GPRMC,144939.70,A,4816.5885540,N,00333.1098420,W,0.0156,0.000,090824,-1.0,W*4b
$GPGSA,A,3,4,5,6,7,9,11,20,,,,,,,,*27
$GPZDA,144939.90,09,08,2024,00,00*68
$GPGGA,144939.90,4816.5885540,N,00333.1098360,W,1,09,,158.06,M,49.060,M,,*6F
$GPRMC,144939.90,A,4816.5885540,N,00333.1098360,W,0.0058,0.000,090824,-1.0,W*49
$GPGSA,A,3,4,5,6,7,9,11,20,,,,,,,,*27
$GPZDA,144940.00,09,08,2024,00,00*6F
$GPGGA,144940.00,4816.5885540,N,00333.1098300,W,1,09,,158.06,M,49.060,M,,*6E
$GPRMC,144940.00,A,4816.5885540,N,00333.1098300,W,0.0156,0.000,090824,-1.0,W*47
$GPGSA,A,3,4,5,6,7,9,11,20,,,,,,,,*27
$GPZDA,144940.10,09,08,2024,00,00*6E
$GPGGA,144940.10,4816.5885600,N,00333.1098240,W,1,09,,158.06,M,49.060,M,,*6D
$GPRMC,144940.10,A,4816.5885600,N,00333.1098240,W,0.0233,0.000,090824,-1.0,W*44
$GPGSA,A,3,4,5,6,7,9,11,20,,,,,,,,*27
$GPZDA,144940.20,09,08,2024,00,00*6D
$GPGGA,144940.20,4816.5885600,N,00333.1098180,W,1,09,,158.06,M,49.060,M,,*61
$GPRMC,144940.20,A,4816.5885600,N,00333.1098180,W,0.0117,0.000,090824,-1.0,W*4d
$GPGSA,A,3,4,5,6,7,9,11,20,,,,,,,,*27
$GPZDA,144940.30,09,08,2024,00,00*6C
$GPGGA,144940.30,4816.5885600,N,00333.1098120,W,1,09,,158.06,M,49.060,M,,*6A
$GPRMC,144940.30,A,4816.5885600,N,00333.1098120,W,0.0369,0.000,090824,-1.0,W*4d
$GPGSA,A,3,4,5,6,7,9,11,20,,,,,,,,*27
$GPZDA,144940.40,09,08,2024,00,00*6B
$GPGGA,144940.40,4816.5885600,N,00333.1098060,W,1,09,,158.06,M,49.060,M,,*68
$GPRMC,144940.40,A,4816.5885600,N,00333.1098060,W,0.0369,0.000,090824,-1.0,W*4f
$GPGSA,A,3,4,5,6,7,9,11,20,,,,,,,,*27
$GPZDA,144940.50,09,08,2024,00,00*6A
$GPGGA,144940.50,4816.5885600,N,00333.1098000,W,1,09,,158.06,M,49.060,M,,*6F
$GPRMC,144940.50,A,4816.5885600,N,00333.1098000,W,0.0428,0.000,090824,-1.0,W*4a
$GPGSA,A,3,4,5,6,7,9,11,20,,,,,,,,*27
$GPZDA,144940.60,09,08,2024,00,00*69
$GPGGA,144940.60,4816.5885600,N,00333.1098000,W,1,09,,158.06,M,49.060,M,,*6C
$GPRMC,144940.60,A,4816.5885600,N,00333.1098000,W,0.0447,0.000,090824,-1.0,W*40
$GPGSA,A,3,4,5,6,7,9,11,20,,,,,,,,*27
$GPGSV,4,1,13,04,19,063,40,05,16,298,34,06,44,193,47,07,56,133,47*7D
$GPGSV,4,2,13,09,55,061,48,11,57,266,46,20,45,301,43,28,-44,009,00*55
$GPGSV,4,3,13,29,10,324,44,30,36,175,47,33,33,196,00,37,30,148,00*71
$GPGSV,4,4,13,39,28,144,00*4A
$GPZDA,144940.70,09,08,2024,00,00*68
$GPGGA,144940.70,4816.5885600,N,00333.1097880,W,1,09,,158.06,M,49.060,M,,*62
$GPRMC,144940.70,A,4816.5885600,N,00333.1097880,W,0.0486,0.000,090824,-1.0,W*43
$GPGSA,A,3,4,5,6,7,9,11,20,,,,,,,,*27
$GPZDA,144940.90,09,08,2024,00,00*66
$GPGGA,144940.90,4816.5885660,N,00333.1097760,W,1,09,,158.07,M,49.060,M,,*6A
$GPRMC,144940.90,A,4816.5885660,N,00333.1097760,W,0.0311,0.000,090824,-1.0,W*43
$GPGSA,A,3,4,5,6,7,9,11,20,,,,,,,,*27
$GPZDA,144941.00,09,08,2024,00,00*6E
$GPGGA,144941.00,4816.5885660,N,00333.1097760,W,1,09,,158.07,M,49.060,M,,*62
$GPRMC,144941.00,A,4816.5885660,N,00333.1097760,W,0.0389,0.000,090824,-1.0,W*4a
$GPGSA,A,3,4,5,6,7,9,11,20,,,,,,,,*27
$GPZDA,144941.10,09,08,2024,00,00*6F
$GPGGA,144941.10,4816.5885660,N,00333.1097700,W,1,09,,158.06,M,49.060,M,,*64
$GPRMC,144941.10,A,4816.5885660,N,00333.1097700,W,0.0292,0.000,090824,-1.0,W*46
$GPGSA,A,3,4,5,6,7,9,11,20,,,,,,,,*27
$GPZDA,144941.20,09,08,2024,00,00*6C
$GPGGA,144941.20,4816.5885660,N,00333.1097640,W,1,09,,158.06,M,49.060,M,,*62
$GPRMC,144941.20,A,4816.5885660,N,00333.1097640,W,0.0175,0.000,090824,-1.0,W*4a
$GPGSA,A,3,4,5,6,7,9,11,20,,,,,,,,*27
$GPZDA,144941.30,09,08,2024,00,00*6D
$GPGGA,144941.30,4816.5885660,N,00333.1097640,W,1,09,,158.06,M,49.060,M,,*63
$GPRMC,144941.30,A,4816.5885660,N,00333.1097640,W,0.0039,0.000,090824,-1.0,W*42
$GPGSA,A,3,4,5,6,7,9,11,20,,,,,,,,*27
$GPZDA,144941.40,09,08,2024,00,00*6A
$GPGGA,144941.40,4816.5885660,N,00333.1097580,W,1,09,,158.06,M,49.060,M,,*6B
$GPRMC,144941.40,A,4816.5885660,N,00333.1097580,W,0.0058,0.000,090824,-1.0,W*4d
$GPGSA,A,3,4,5,6,7,9,11,20,,,,,,,,*27
$GPZDA,144941.50,09,08,2024,00,00*6B
$GPGGA,144941.50,4816.5885720,N,00333.1097520,W,1,09,,158.05,M,49.060,M,,*66
$GPRMC,144941.50,A,4816.5885720,N,00333.1097520,W,0.0272,0.000,090824,-1.0,W*49
$GPGSA,A,3,4,5,6,7,9,11,20,,,,,,,,*27
$GPZDA,144941.60,09,08,2024,00,00*68
$GPGGA,144941.60,4816.5885720,N,00333.1097520,W,1,09,,158.06,M,49.060,M,,*66
$GPRMC,144941.60,A,4816.5885720,N,00333.1097520,W,0.0214,0.000,090824,-1.0,W*4a
$GPGSA,A,3,4,5,6,7,9,11,20,,,,,,,,*27
$GPGSV,4,1,13,04,19,063,40,05,16,298,34,06,44,193,46,07,56,133,47*7C
$GPGSV,4,2,13,09,55,061,48,11,57,266,46,20,45,301,43,28,-44,009,00*55
$GPGSV,4,3,13,29,10,324,44,30,36,175,47,33,33,196,00,37,30,148,00*71
$GPGSV,4,4,13,39,28,144,00*4A
$GPZDA,144941.70,09,08,2024,00,00*69
$GPGGA,144941.70,4816.5885720,N,00333.1097460,W,1,08,,158.05,M,49.060,M,,*60
$GPRMC,144941.70,A,4816.5885720,N,00333.1097460,W,0.0369,0.000,090824,-1.0,W*45
$GPGSA,A,3,4,6,7,9,11,20,,,,,,,,,*12
$GPZDA,144941.90,09,08,2024,00,00*67
$GPGGA,144941.90,4816.5885720,N,00333.1097400,W,1,08,,158.05,M,49.060,M,,*68
$GPRMC,144941.90,A,4816.5885720,N,00333.1097400,W,0.0233,0.000,090824,-1.0,W*43
$GPGSA,A,3,4,6,7,9,11,20,,,,,,,,,*12
$GPZDA,144942.00,09,08,2024,00,00*6D
$GPGGA,144942.00,4816.5885720,N,00333.1097340,W,1,08,,158.05,M,49.060,M,,*61
$GPRMC,144942.00,A,4816.5885720,N,00333.1097340,W,0.0136,0.000,090824,-1.0,W*4c
$GPGSA,A,3,4,6,7,9,11,20,,,,,,,,,*12
$GPZDA,144942.10,09,08,2024,00,00*6C
$GPGGA,144942.10,4816.5885720,N,00333.1097280,W,1,08,,158.05,M,49.060,M,,*6D
$GPRMC,144942.10,A,4816.5885720,N,00333.1097280,W,0.0272,0.000,090824,-1.0,W*43
$GPGSA,A,3,4,6,7,9,11,20,,,,,,,,,*12
$GPZDA,144942.20,09,08,2024,00,00*6F
$GPGGA,144942.20,4816.5885720,N,00333.1097280,W,1,08,,158.05,M,49.060,M,,*6E
$GPRMC,144942.20,A,4816.5885720,N,00333.1097280,W,0.0233,0.000,090824,-1.0,W*45
$GPGSA,A,3,4,6,7,9,11,20,,,,,,,,,*12
$GPZDA,144942.30,09,08,2024,00,00*6E
$GPGGA,144942.30,4816.5885780,N,00333.1097220,W,1,08,,158.05,M,49.060,M,,*6F
$GPRMC,144942.30,A,4816.5885780,N,00333.1097220,W,0.0369,0.000,090824,-1.0,W*4a
$GPGSA,A,3,4,6,7,9,11,20,,,,,,,,,*12
$GPZDA,144942.40,09,08,2024,00,00*69
$GPGGA,144942.40,4816.5885780,N,00333.1097160,W,1,08,,158.05,M,49.060,M,,*6F
$GPRMC,144942.40,A,4816.5885780,N,00333.1097160,W,0.0272,0.000,090824,-1.0,W*41
$GPGSA,A,3,4,6,7,9,11,20,,,,,,,,,*12
$GPZDA,144942.50,09,08,2024,00,00*68
$GPGGA,144942.50,4816.5885780,N,00333.1097160,W,1,08,,158.06,M,49.060,M,,*6D
$GPRMC,144942.50,A,4816.5885780,N,00333.1097160,W,0.0156,0.000,090824,-1.0,W*45
$GPGSA,A,3,4,6,7,9,11,20,,,,,,,,,*12
$GPZDA,144942.60,09,08,2024,00,00*6B
$GPGGA,144942.60,4816.5885780,N,00333.1097100,W,1,08,,158.05,M,49.060,M,,*6B
$GPRMC,144942.60,A,4816.5885780,N,00333.1097100,W,0.0156,0.000,090824,-1.0,W*40
$GPGSA,A,3,4,6,7,9,11,20,,,,,,,,,*12
$GPGSV,4,1,13,04,19,063,40,05,16,298,35,06,44,193,46,07,56,133,47*7D
$GPGSV,4,2,13,09,55,061,48,11,57,266,46,20,45,301,44,28,-44,009,00*52
$GPGSV,4,3,13,29,10,324,44,30,36,175,47,33,33,196,00,37,30,148,00*71
$GPGSV,4,4,13,39,28,144,00*4A
$GPZDA,144942.70,09,08,2024,00,00*6A
$GPGGA,144942.70,4816.5885780,N,00333.1097100,W,1,09,,158.06,M,49.060,M,,*68
$GPRMC,144942.70,A,4816.5885780,N,00333.1097100,W,0.0233,0.000,090824,-1.0,W*41
$GPGSA,A,3,4,5,6,7,9,11,20,,,,,,,,*27
$GPZDA,144942.90,09,08,2024,00,00*64
$GPGGA,144942.90,4816.5885840,N,00333.1096980,W,1,09,,158.06,M,49.060,M,,*64
$GPRMC,144942.90,A,4816.5885840,N,00333.1096980,W,0.0117,0.000,090824,-1.0,W*48
$GPGSA,A,3,4,5,6,7,9,11,20,,,,,,,,*27
$GPZDA,144943.00,09,08,2024,00,00*6C
$GPGGA,144943.00,4816.5885840,N,00333.1096920,W,1,09,,158.06,M,49.060,M,,*66
$GPRMC,144943.00,A,4816.5885840,N,00333.1096920,W,0.0136,0.000,090824,-1.0,W*49
$GPGSA,A,3,4,5,6,7,9,11,20,,,,,,,,*27
$GPZDA,144943.10,09,08,2024,00,00*6D
$GPGGA,144943.10,4816.5885840,N,00333.1096920,W,1,09,,158.07,M,49.060,M,,*66
$GPRMC,144943.10,A,4816.5885840,N,00333.1096920,W,0.0097,0.000,090824,-1.0,W*42
$GPGSA,A,3,4,5,6,7,9,11,20,,,,,,,,*27
$GPZDA,144943.20,09,08,2024,00,00*6E
$GPGGA,144943.20,4816.5885840,N,00333.1096860,W,1,09,,158.07,M,49.060,M,,*60
$GPRMC,144943.20,A,4816.5885840,N,00333.1096860,W,0.0117,0.000,090824,-1.0,W*4d
$GPGSA,A,3,4,5,6,7,9,11,20,,,,,,,,*27
$GPZDA,144943.30,09,08,2024,00,00*6F
$GPGGA,144943.30,4816.5885840,N,00333.1096860,W,1,09,,158.07,M,49.060,M,,*61
$GPRMC,144943.30,A,4816.5885840,N,00333.1096860,W,0.0233,0.000,090824,-1.0,W*49
$GPGSA,A,3,4,5,6,7,9,11,20,,,,,,,,*27
$GPZDA,144943.40,09,08,2024,00,00*68
$GPGGA,144943.40,4816.5885840,N,00333.1096800,W,1,09,,158.08,M,49.060,M,,*6F
$GPRMC,144943.40,A,4816.5885840,N,00333.1096800,W,0.0097,0.000,090824,-1.0,W*44
$GPGSA,A,3,4,5,6,7,9,11,20,,,,,,,,*27
$GPZDA,144943.50,09,08,2024,00,00*69
$GPGGA,144943.50,4816.5885840,N,00333.1096740,W,1,09,,158.07,M,49.060,M,,*6A
$GPRMC,144943.50,A,4816.5885840,N,00333.1096740,W,0.0330,0.000,090824,-1.0,W*40
$GPGSA,A,3,4,5,6,7,9,11,20,,,,,,,,*27
$GPZDA,144943.60,09,08,2024,00,00*6A
$GPGGA,144943.60,4816.5885840,N,00333.1096740,W,1,09,,158.08,M,49.060,M,,*66
$GPRMC,144943.60,A,4816.5885840,N,00333.1096740,W,0.0408,0.000,090824,-1.0,W*4f
$GPGSA,A,3,4,5,6,7,9,11,20,,,,,,,,*27
$GPGSV,4,1,13,04,19,063,40,05,16,298,35,06,44,193,46,07,56,132,47*7C
$GPGSV,4,2,13,09,55,061,48,11,57,266,46,20,45,301,44,28,-44,009,00*52
$GPGSV,4,3,13,29,10,324,44,30,36,175,47,33,33,196,00,37,30,148,00*71
$GPGSV,4,4,13,39,28,144,00*4A
$GPZDA,144943.70,09,08,2024,00,00*6B
$GPGGA,144943.70,4816.5885840,N,00333.1096680,W,1,09,,158.08,M,49.060,M,,*6A
$GPRMC,144943.70,A,4816.5885840,N,00333.1096680,W,0.0214,0.000,090824,-1.0,W*48
$GPGSA,A,3,4,5,6,7,9,11,20,,,,,,,,*27
$GPZDA,144943.90,09,08,2024,00,00*65
$GPGGA,144943.90,4816.5885900,N,00333.1096620,W,1,09,,158.09,M,49.060,M,,*6A
$GPRMC,144943.90,A,4816.5885900,N,00333.1096620,W,0.0369,0.000,090824,-1.0,W*42
$GPGSA,A,3,4,5,6,7,9,11,20,,,,,,,,*27
$GPZDA,144944.00,09,08,2024,00,00*6B
$GPGGA,144944.00,4816.5885900,N,00333.1096620,W,1,09,,158.10,M,49.060,M,,*6C
$GPRMC,144944.00,A,4816.5885900,N,00333.1096620,W,0.0292,0.000,090824,-1.0,W*49
$GPGSA,A,3,4,5,6,7,9,11,20,,,,,,,,*27
$GPZDA,144944.10,09,08,2024,00,00*6A
$GPGGA,144944.10,4816.5885900,N,00333.1096560,W,1,09,,158.11,M,49.060,M,,*6B
$GPRMC,144944.10,A,4816.5885900,N,00333.1096560,W,0.0428,0.000,090824,-1.0,W*48
$GPGSA,A,3,4,5,6,7,9,11,20,,,,,,,,*27
$GPZDA,144944.20,09,08,2024,00,00*69
$GPGGA,144944.20,4816.5885900,N,00333.1096560,W,1,09,,158.12,M,49.060,M,,*6B
$GPRMC,144944.20,A,4816.5885900,N,00333.1096560,W,0.0369,0.000,090824,-1.0,W*49
$GPGSA,A,3,4,5,6,7,9,11,20,,,,,,,,*27
$GPZDA,144944.30,09,08,2024,00,00*68
$GPGGA,144944.30,4816.5885900,N,00333.1096500,W,1,09,,158.12,M,49.060,M,,*6C
$GPRMC,144944.30,A,4816.5885900,N,00333.1096500,W,0.0117,0.000,090824,-1.0,W*45
$GPGSA,A,3,4,5,6,7,9,11,20,,,,,,,,*27
$GPZDA,144944.40,09,08,2024,00,00*6F
$GPGGA,144944.40,4816.5885900,N,00333.1096440,W,1,09,,158.12,M,49.060,M,,*6E
$GPRMC,144944.40,A,4816.5885900,N,00333.1096440,W,0.0253,0.000,090824,-1.0,W*44
$GPGSA,A,3,4,5,6,7,9,11,20,,,,,,,,*27
$GPZDA,144944.50,09,08,2024,00,00*6E
$GPGGA,144944.50,4816.5885900,N,00333.1096500,W,1,09,,158.13,M,49.060,M,,*6B
$GPRMC,144944.50,A,4816.5885900,N,00333.1096500,W,0.0428,0.000,090824,-1.0,W*4a
$GPGSA,A,3,4,5,6,7,9,11,20,,,,,,,,*27
$GPZDA,144944.60,09,08,2024,00,00*6D
$GPGGA,144944.60,4816.5885900,N,00333.1096440,W,1,09,,158.13,M,49.060,M,,*6D
$GPRMC,144944.60,A,4816.5885900,N,00333.1096440,W,0.0292,0.000,090824,-1.0,W*4b
$GPGSA,A,3,4,5,6,7,9,11,20,,,,,,,,*27
$GPGSV,4,1,13,04,19,063,40,05,16,298,35,06,44,193,46,07,56,132,47*7C
$GPGSV,4,2,13,09,55,061,48,11,57,266,46,20,45,301,44,28,-44,009,00*52
$GPGSV,4,3,13,29,10,324,44,30,36,175,47,33,33,196,00,37,30,148,00*71
$GPGSV,4,4,13,39,28,144,00*4A
$GPZDA,144944.70,09,08,2024,00,00*6C
$GPGGA,144944.70,4816.5885900,N,00333.1096440,W,1,08,,158.14,M,49.060,M,,*6A
$GPRMC,144944.70,A,4816.5885900,N,00333.1096440,W,0.0272,0.000,090824,-1.0,W*44
$GPGSA,A,3,4,6,7,9,11,20,,,,,,,,,*12
$GPZDA,144944.90,09,08,2024,00,00*62
$GPGGA,144944.90,4816.5885960,N,00333.1096380,W,1,08,,158.14,M,49.060,M,,*69
$GPRMC,144944.90,A,4816.5885960,N,00333.1096380,W,0.0272,0.000,090824,-1.0,W*47
$GPGSA,A,3,4,6,7,9,11,20,,,,,,,,,*12
$GPZDA,144945.00,09,08,2024,00,00*6A
$GPGGA,144945.00,4816.5885960,N,00333.1096380,W,1,08,,158.15,M,49.060,M,,*60
$GPRMC,144945.00,A,4816.5885960,N,00333.1096380,W,0.0292,0.000,090824,-1.0,W*41
$GPGSA,A,3,4,6,7,9,11,20,,,,,,,,,*12
$GPZDA,144945.10,09,08,2024,00,00*6B
$GPGGA,144945.10,4816.5885960,N,00333.1096380,W,1,08,,158.15,M,49.060,M,,*61
$GPRMC,144945.10,A,4816.5885960,N,00333.1096380,W,0.0214,0.000,090824,-1.0,W*4e
$GPGSA,A,3,4,6,7,9,11,20,,,,,,,,,*12
$GPZDA,144945.20,09,08,2024,00,00*68
$GPGGA,144945.20,4816.5885960,N,00333.1096380,W,1,08,,158.15,M,49.060,M,,*62
$GPRMC,144945.20,A,4816.5885960,N,00333.1096380,W,0.0058,0.000,090824,-1.0,W*47
$GPGSA,A,3,4,6,7,9,11,20,,,,,,,,,*12
$GPZDA,144945.30,09,08,2024,00,00*69
$GPGGA,144945.30,4816.5885960,N,00333.1096380,W,1,08,,158.15,M,49.060,M,,*63
$GPRMC,144945.30,A,4816.5885960,N,00333.1096380,W,0.0156,0.000,090824,-1.0,W*49
$GPGSA,A,3,4,6,7,9,11,20,,,,,,,,,*12
$GPZDA,144945.40,09,08,2024,00,00*6E
$GPGGA,144945.40,4816.5885960,N,00333.1096320,W,1,08,,158.16,M,49.060,M,,*6D
$GPRMC,144945.40,A,4816.5885960,N,00333.1096320,W,0.0330,0.000,090824,-1.0,W*46
$GPGSA,A,3,4,6,7,9,11,20,,,,,,,,,*12
$GPZDA,144945.50,09,08,2024,00,00*6F
$GPGGA,144945.50,4816.5885960,N,00333.1096320,W,1,08,,158.16,M,49.060,M,,*6C
$GPRMC,144945.50,A,4816.5885960,N,00333.1096320,W,0.0272,0.000,090824,-1.0,W*40
$GPGSA,A,3,4,6,7,9,11,20,,,,,,,,,*12
$GPZDA,144945.60,09,08,2024,00,00*6C
$GPGGA,144945.60,4816.5885960,N,00333.1096320,W,1,08,,158.17,M,49.060,M,,*6E
$GPRMC,144945.60,A,4816.5885960,N,00333.1096320,W,0.0253,0.000,090824,-1.0,W*40
$GPGSA,A,3,4,6,7,9,11,20,,,,,,,,,*12
$GPGSV,4,1,13,04,19,063,40,05,16,298,35,06,44,193,46,07,56,132,47*7C
$GPGSV,4,2,13,09,55,061,48,11,57,266,46,20,45,301,43,28,-44,009,00*55
$GPGSV,4,3,13,29,10,324,43,30,36,175,47,33,33,196,00,37,30,148,00*76
$GPGSV,4,4,13,39,28,144,00*4A
$GPZDA,144945.70,09,08,2024,00,00*6D
$GPGGA,144945.70,4816.5885960,N,00333.1096320,W,1,09,,158.17,M,49.060,M,,*6E
$GPRMC,144945.70,A,4816.5885960,N,00333.1096320,W,0.0194,0.000,090824,-1.0,W*49
$GPGSA,A,3,4,5,6,7,9,11,20,,,,,,,,*27
$GPZDA,144945.90,09,08,2024,00,00*63
$GPGGA,144945.90,4816.5885960,N,00333.1096320,W,1,09,,158.19,M,49.060,M,,*6E
$GPRMC,144945.90,A,4816.5885960,N,00333.1096320,W,0.0136,0.000,090824,-1.0,W*4f
$GPGSA,A,3,4,5,6,7,9,11,20,,,,,,,,*27
$GPZDA,144946.00,09,08,2024,00,00*69
$GPGGA,144946.00,4816.5885960,N,00333.1096320,W,1,09,,158.19,M,49.060,M,,*64
$GPRMC,144946.00,A,4816.5885960,N,00333.1096320,W,0.0330,0.000,090824,-1.0,W*41
$GPGSA,A,3,4,5,6,7,9,11,20,,,,,,,,*27
$GPZDA,144946.10,09,08,2024,00,00*68
$GPGGA,144946.10,4816.5885960,N,00333.1096320,W,1,09,,158.19,M,49.060,M,,*65
$GPRMC,144946.10,A,4816.5885960,N,00333.1096320,W,0.0292,0.000,090824,-1.0,W*49
$GPGSA,A,3,4,5,6,7,9,11,20,,,,,,,,*27
$GPZDA,144946.20,09,08,2024,00,00*6B
$GPGGA,144946.20,4816.5885960,N,00333.1096320,W,1,09,,158.20,M,49.060,M,,*6C
$GPRMC,144946.20,A,4816.5885960,N,00333.1096320,W,0.0117,0.000,090824,-1.0,W*44
$GPGSA,A,3,4,5,6,7,9,11,20,,,,,,,,*27
$GPZDA,144946.30,09,08,2024,00,00*6A
$GPGGA,144946.30,4816.5885960,N,00333.1096320,W,1,09,,158.20,M,49.060,M,,*6D
$GPRMC,144946.30,A,4816.5885960,N,00333.1096320,W,0.0136,0.000,090824,-1.0,W*46
$GPGSA,A,3,4,5,6,7,9,11,20,,,,,,,,*27
$GPZDA,144946.40,09,08,2024,00,00*6D
$GPGGA,144946.40,4816.5885960,N,00333.1096320,W,1,09,,158.21,M,49.060,M,,*6B
$GPRMC,144946.40,A,4816.5885960,N,00333.1096320,W,0.0058,0.000,090824,-1.0,W*48
$GPGSA,A,3,4,5,6,7,9,11,20,,,,,,,,*27
$GPZDA,144946.50,09,08,2024,00,00*6C
$GPGGA,144946.50,4816.5885960,N,00333.1096260,W,1,09,,158.21,M,49.060,M,,*6F
$GPRMC,144946.50,A,4816.5885960,N,00333.1096260,W,0.0214,0.000,090824,-1.0,W*46
$GPGSA,A,3,4,5,6,7,9,11,20,,,,,,,,*27
$GPZDA,144946.60,09,08,2024,00,00*6F
$GPGGA,144946.60,4816.5885960,N,00333.1096260,W,1,09,,158.22,M,49.060,M,,*6F
$GPRMC,144946.60,A,4816.5885960,N,00333.1096260,W,0.0350,0.000,090824,-1.0,W*44
$GPGSA,A,3,4,5,6,7,9,11,20,,,,,,,,*27
$GPGSV,4,1,13,04,19,063,40,05,16,298,36,06,44,193,46,07,56,132,47*7F
$GPGSV,4,2,13,09,55,061,48,11,57,266,45,20,45,301,43,28,-44,009,00*56
$GPGSV,4,3,13,29,10,324,43,30,36,175,47,33,33,196,00,37,30,148,00*76
$GPGSV,4,4,13,39,28,144,00*4A
$GPZDA,144946.70,09,08,2024,00,00*6E
$GPGGA,144946.70,4816.5885960,N,00333.1096260,W,1,09,,158.22,M,49.060,M,,*6E
$GPRMC,144946.70,A,4816.5885960,N,00333.1096260,W,0.0350,0.000,090824,-1.0,W*45
$GPGSA,A,3,4,5,6,7,9,11,20,,,,,,,,*27
$GPZDA,144946.90,09,08,2024,00,00*60
$GPGGA,144946.90,4816.5885960,N,00333.1096260,W,1,09,,158.24,M,49.060,M,,*66
$GPRMC,144946.90,A,4816.5885960,N,00333.1096260,W,0.0272,0.000,090824,-1.0,W*4a
$GPGSA,A,3,4,5,6,7,9,11,20,,,,,,,,*27
$GPZDA,144947.00,09,08,2024,00,00*68
$GPGGA,144947.00,4816.5885960,N,00333.1096260,W,1,09,,158.24,M,49.060,M,,*6E
$GPRMC,144947.00,A,4816.5885960,N,00333.1096260,W,0.0078,0.000,090824,-1.0,W*4a
$GPGSA,A,3,4,5,6,7,9,11,20,,,,,,,,*27
$GPZDA,144947.10,09,08,2024,00,00*69
$GPGGA,144947.10,4816.5885960,N,00333.1096260,W,1,09,,158.25,M,49.060,M,,*6E
$GPRMC,144947.10,A,4816.5885960,N,00333.1096260,W,0.0214,0.000,090824,-1.0,W*43
$GPGSA,A,3,4,5,6,7,9,11,20,,,,,,,,*27
$GPZDA,144947.20,09,08,2024,00,00*6A
$GPGGA,144947.20,4816.5885960,N,00333.1096260,W,1,09,,158.26,M,49.060,M,,*6E
$GPRMC,144947.20,A,4816.5885960,N,00333.1096260,W,0.0117,0.000,090824,-1.0,W*40
$GPGSA,A,3,4,5,6,7,9,11,20,,,,,,,,*27
$GPZDA,144947.30,09,08,2024,00,00*6B
$GPGGA,144947.30,4816.5885960,N,00333.1096260,W,1,09,,158.26,M,49.060,M,,*6F
$GPRMC,144947.30,A,4816.5885960,N,00333.1096260,W,0.0175,0.000,090824,-1.0,W*45
$GPGSA,A,3,4,5,6,7,9,11,20,,,,,,,,*27
$GPZDA,144947.40,09,08,2024,00,00*6C
$GPGGA,144947.40,4816.5885960,N,00333.1096260,W,1,09,,158.27,M,49.060,M,,*69
$GPRMC,144947.40,A,4816.5885960,N,00333.1096260,W,0.0369,0.000,090824,-1.0,W*4d
$GPGSA,A,3,4,5,6,7,9,11,20,,,,,,,,*27
$GPZDA,144947.50,09,08,2024,00,00*6D
$GPGGA,144947.50,4816.5885960,N,00333.1096260,W,1,09,,158.28,M,49.060,M,,*67
$GPRMC,144947.50,A,4816.5885960,N,00333.1096260,W,0.0175,0.000,090824,-1.0,W*43
$GPGSA,A,3,4,5,6,7,9,11,20,,,,,,,,*27
$GPZDA,144947.60,09,08,2024,00,00*6E
$GPGGA,144947.60,4816.5885900,N,00333.1096260,W,1,09,,158.28,M,49.060,M,,*62
$GPRMC,144947.60,A,4816.5885900,N,00333.1096260,W,0.0603,0.000,090824,-1.0,W*40
$GPGSA,A,3,4,5,6,7,9,11,20,,,,,,,,*27
$GPGSV,4,1,13,04,19,063,40,05,16,298,35,06,44,193,46,07,56,132,47*7C
$GPGSV,4,2,13,09,55,061,48,11,57,266,45,20,45,301,44,28,-44,009,00*51
$GPGSV,4,3,13,29,10,324,43,30,36,175,47,33,33,196,00,37,30,148,00*76
$GPGSV,4,4,13,39,28,144,00*4A
$GPZDA,144947.70,09,08,2024,00,00*6F
$GPGGA,144947.70,4816.5885900,N,00333.1096260,W,1,09,,158.29,M,49.060,M,,*62
$GPRMC,144947.70,A,4816.5885900,N,00333.1096260,W,0.0467,0.000,090824,-1.0,W*41
$GPGSA,A,3,4,5,6,7,9,11,20,,,,,,,,*27
$GPZDA,144947.90,09,08,2024,00,00*61
$GPGGA,144947.90,4816.5885900,N,00333.1096260,W,1,09,,158.30,M,49.060,M,,*64
$GPRMC,144947.90,A,4816.5885900,N,00333.1096260,W,0.0136,0.000,090824,-1.0,W*4e
$GPGSA,A,3,4,5,6,7,9,11,20,,,,,,,,*27
$GPZDA,144948.00,09,08,2024,00,00*67
$GPGGA,144948.00,4816.5885900,N,00333.1096260,W,1,09,,158.31,M,49.060,M,,*63
$GPRMC,144948.00,A,4816.5885900,N,00333.1096260,W,0.0194,0.000,090824,-1.0,W*40
$GPGSA,A,3,4,5,6,7,9,11,20,,,,,,,,*27
$GPZDA,144948.10,09,08,2024,00,00*66
$GPGGA,144948.10,4816.5885900,N,00333.1096260,W,1,09,,158.32,M,49.060,M,,*61
$GPRMC,144948.10,A,4816.5885900,N,00333.1096260,W,0.0194,0.000,090824,-1.0,W*41
$GPGSA,A,3,4,5,6,7,9,11,20,,,,,,,,*27
$GPZDA,144948.20,09,08,2024,00,00*65
$GPGGA,144948.20,4816.5885900,N,00333.1096260,W,1,09,,158.33,M,49.060,M,,*63
$GPRMC,144948.20,A,4816.5885900,N,00333.1096260,W,0.0194,0.000,090824,-1.0,W*42
$GPGSA,A,3,4,5,6,7,9,11,20,,,,,,,,*27
$GPZDA,144948.30,09,08,2024,00,00*64
$GPGGA,144948.30,4816.5885900,N,00333.1096260,W,1,09,,158.34,M,49.060,M,,*65
$GPRMC,144948.30,A,4816.5885900,N,00333.1096260,W,0.0156,0.000,090824,-1.0,W*4d
$GPGSA,A,3,4,5,6,7,9,11,20,,,,,,,,*27
$GPZDA,144948.40,09,08,2024,00,00*63
$GPGGA,144948.40,4816.5885900,N,00333.1096320,W,1,09,,158.34,M,49.060,M,,*67
$GPRMC,144948.40,A,4816.5885900,N,00333.1096320,W,0.0272,0.000,090824,-1.0,W*4a
$GPGSA,A,3,4,5,6,7,9,11,20,,,,,,,,*27
$GPZDA,144948.50,09,08,2024,00,00*62
$GPGGA,144948.50,4816.5885840,N,00333.1096320,W,1,09,,158.34,M,49.060,M,,*63
$GPRMC,144948.50,A,4816.5885840,N,00333.1096320,W,0.0039,0.000,090824,-1.0,W*43
$GPGSA,A,3,4,5,6,7,9,11,20,,,,,,,,*27
$GPZDA,144948.60,09,08,2024,00,00*61
$GPGGA,144948.60,4816.5885840,N,00333.1096320,W,1,09,,158.34,M,49.060,M,,*60
$GPRMC,144948.60,A,4816.5885840,N,00333.1096320,W,0.0097,0.000,090824,-1.0,W*44
$GPGSA,A,3,4,5,6,7,9,11,20,,,,,,,,*27
$GPGSV,4,1,13,04,19,063,40,05,16,298,35,06,44,193,46,07,56,132,47*7C
$GPGSV,4,2,13,09,55,061,48,11,57,266,45,20,45,301,44,28,-44,009,00*51
$GPGSV,4,3,13,29,10,324,43,30,36,175,46,33,33,196,00,37,30,148,28*7D
$GPGSV,4,4,13,39,28,144,00*4A
$GPZDA,144948.70,09,08,2024,00,00*60
$GPGGA,144948.70,4816.5885840,N,00333.1096320,W,1,08,,158.34,M,49.060,M,,*60
$GPRMC,144948.70,A,4816.5885840,N,00333.1096320,W,0.0136,0.000,090824,-1.0,W*4f
$GPGSA,A,3,4,6,7,9,11,20,,,,,,,,,*12
$GPZDA,144948.90,09,08,2024,00,00*6E
$GPGGA,144948.90,4816.5885840,N,00333.1096380,W,1,08,,158.35,M,49.060,M,,*65
$GPRMC,144948.90,A,4816.5885840,N,00333.1096380,W,0.0428,0.000,090824,-1.0,W*41
$GPGSA,A,3,4,6,7,9,11,20,,,,,,,,,*12
$GPZDA,144949.00,09,08,2024,00,00*66
$GPGGA,144949.00,4816.5885840,N,00333.1096380,W,1,08,,158.35,M,49.060,M,,*6D
$GPRMC,144949.00,A,4816.5885840,N,00333.1096380,W,0.0350,0.000,090824,-1.0,W*41
$GPGSA,A,3,4,6,7,9,11,20,,,,,,,,,*12
$GPZDA,144949.10,09,08,2024,00,00*67
$GPGGA,144949.10,4816.5885840,N,00333.1096380,W,1,08,,158.35,M,49.060,M,,*6C
$GPRMC,144949.10,A,4816.5885840,N,00333.1096380,W,0.0505,0.000,090824,-1.0,W*46
$GPGSA,A,3,4,6,7,9,11,20,,,,,,,,,*12
$GPZDA,144949.20,09,08,2024,00,00*64
$GPGGA,144949.20,4816.5885840,N,00333.1096440,W,1,08,,158.36,M,49.060,M,,*67
$GPRMC,144949.20,A,4816.5885840,N,00333.1096440,W,0.0408,0.000,090824,-1.0,W*42
$GPGSA,A,3,4,6,7,9,11,20,,,,,,,,,*12
$GPZDA,144949.30,09,08,2024,00,00*65
$GPGGA,144949.30,4816.5885780,N,00333.1096440,W,1,08,,158.36,M,49.060,M,,*65
$GPRMC,144949.30,A,4816.5885780,N,00333.1096440,W,0.0039,0.000,090824,-1.0,W*46
$GPGSA,A,3,4,6,7,9,11,20,,,,,,,,,*12
$GPZDA,144949.40,09,08,2024,00,00*62
$GPGGA,144949.40,4816.5885840,N,00333.1096440,W,1,08,,158.37,M,49.060,M,,*60
$GPRMC,144949.40,A,4816.5885840,N,00333.1096440,W,0.0505,0.000,090824,-1.0,W*48
$GPGSA,A,3,4,6,7,9,11,20,,,,,,,,,*12
$GPZDA,144949.50,09,08,2024,00,00*63
$GPGGA,144949.50,4816.5885780,N,00333.1096440,W,1,08,,158.37,M,49.060,M,,*62
$GPRMC,144949.50,A,4816.5885780,N,00333.1096440,W,0.0292,0.000,090824,-1.0,W*43
$GPGSA,A,3,4,6,7,9,11,20,,,,,,,,,*12
$GPZDA,144949.60,09,08,2024,00,00*60
$GPGGA,144949.60,4816.5885780,N,00333.1096500,W,1,08,,158.37,M,49.060,M,,*64
$GPRMC,144949.60,A,4816.5885780,N,00333.1096500,W,0.0330,0.000,090824,-1.0,W*4c
$GPGSA,A,3,4,6,7,9,11,20,,,,,,,,,*12
$GPGSV,4,1,13,04,19,063,40,05,16,298,36,06,44,193,46,07,56,132,47*7F
$GPGSV,4,2,13,09,55,061,48,11,57,266,45,20,45,301,44,28,-44,009,00*51
$GPGSV,4,3,13,29,10,324,43,30,36,175,46,33,33,196,00,37,30,148,00*77
$GPGSV,4,4,13,39,28,144,00*4A
$GPZDA,144949.70,09,08,2024,00,00*61
$GPGGA,144949.70,4816.5885780,N,00333.1096500,W,1,09,,158.38,M,49.060,M,,*6B
$GPRMC,144949.70,A,4816.5885780,N,00333.1096500,W,0.0292,0.000,090824,-1.0,W*44
$GPGSA,A,3,4,5,6,7,9,11,20,,,,,,,,*27
$GPZDA,144949.90,09,08,2024,00,00*6F
$GPGGA,144949.90,4816.5885780,N,00333.1096500,W,1,09,,158.38,M,49.060,M,,*65
$GPRMC,144949.90,A,4816.5885780,N,00333.1096500,W,0.0330,0.000,090824,-1.0,W*43
$GPGSA,A,3,4,5,6,7,9,11,20,,,,,,,,*27
$GPZDA,144950.00,09,08,2024,00,00*6E
$GPGGA,144950.00,4816.5885780,N,00333.1096500,W,1,09,,158.38,M,49.060,M,,*64
$GPRMC,144950.00,A,4816.5885780,N,00333.1096500,W,0.0389,0.000,090824,-1.0,W*40
$GPGSA,A,3,4,5,6,7,9,11,20,,,,,,,,*27
$GPZDA,144950.10,09,08,2024,00,00*6F
$GPGGA,144950.10,4816.5885780,N,00333.1096560,W,1,09,,158.39,M,49.060,M,,*62
$GPRMC,144950.10,A,4816.5885780,N,00333.1096560,W,0.0058,0.000,090824,-1.0,W*48
$GPGSA,A,3,4,5,6,7,9,11,20,,,,,,,,*27
$GPZDA,144950.20,09,08,2024,00,00*6C
$GPGGA,144950.20,4816.5885720,N,00333.1096560,W,1,09,,158.39,M,49.060,M,,*6B
$GPRMC,144950.20,A,4816.5885720,N,00333.1096560,W,0.0078,0.000,090824,-1.0,W*43
$GPGSA,A,3,4,5,6,7,9,11,20,,,,,,,,*27
$GPZDA,144950.30,09,08,2024,00,00*6D
$GPGGA,144950.30,4816.5885720,N,00333.1096560,W,1,09,,158.39,M,49.060,M,,*6A
$GPRMC,144950.30,A,4816.5885720,N,00333.1096560,W,0.0039,0.000,090824,-1.0,W*47
$GPGSA,A,3,4,5,6,7,9,11,20,,,,,,,,*27
$GPZDA,144950.40,09,08,2024,00,00*6A
$GPGGA,144950.40,4816.5885720,N,00333.1096560,W,1,09,,158.40,M,49.060,M,,*63
$GPRMC,144950.40,A,4816.5885720,N,00333.1096560,W,0.0156,0.000,090824,-1.0,W*48
$GPGSA,A,3,4,5,6,7,9,11,20,,,,,,,,*27
$GPZDA,144950.50,09,08,2024,00,00*6B
$GPGGA,144950.50,4816.5885720,N,00333.1096560,W,1,09,,158.41,M,49.060,M,,*63
$GPRMC,144950.50,A,4816.5885720,N,00333.1096560,W,0.0156,0.000,090824,-1.0,W*49
$GPGSA,A,3,4,5,6,7,9,11,20,,,,,,,,*27
$GPZDA,144950.60,09,08,2024,00,00*68
$GPGGA,144950.60,4816.5885720,N,00333.1096620,W,1,09,,158.40,M,49.060,M,,*66
$GPRMC,144950.60,A,4816.5885720,N,00333.1096620,W,0.0117,0.000,090824,-1.0,W*48
$GPGSA,A,3,4,5,6,7,9,11,20,,,,,,,,*27
$GPGSV,4,1,13,04,19,063,40,05,16,298,36,06,44,193,46,07,56,132,47*7F
$GPGSV,4,2,13,09,55,061,48,11,57,266,45,20,45,301,44,28,-44,009,00*51
$GPGSV,4,3,13,29,10,324,42,30,36,175,46,33,33,196,00,37,30,148,00*76
$GPGSV,4,4,13,39,28,144,00*4A
$GPZDA,144950.70,09,08,2024,00,00*69
$GPGGA,144950.70,4816.5885720,N,00333.1096620,W,1,09,,158.41,M,49.060,M,,*66
$GPRMC,144950.70,A,4816.5885720,N,00333.1096620,W,0.0272,0.000,090824,-1.0,W*49
$GPGSA,A,3,4,5,6,7,9,11,20,,,,,,,,*27
$GPZDA,144950.90,09,08,2024,00,00*67
$GPGGA,144950.90,4816.5885660,N,00333.1096620,W,1,09,,158.41,M,49.060,M,,*6D
$GPRMC,144950.90,A,4816.5885660,N,00333.1096620,W,0.0039,0.000,090824,-1.0,W*4f
$GPGSA,A,3,4,5,6,7,9,11,20,,,,,,,,*27
$GPZDA,144951.00,09,08,2024,00,00*6F
$GPGGA,144951.00,4816.5885660,N,00333.1096620,W,1,09,,158.43,M,49.060,M,,*67
$GPRMC,144951.00,A,4816.5885660,N,00333.1096620,W,0.0156,0.000,090824,-1.0,W*4f
$GPGSA,A,3,4,5,6,7,9,11,20,,,,,,,,*27
$GPZDA,144951.10,09,08,2024,00,00*6E
$GPGGA,144951.10,4816.5885660,N,00333.1096620,W,1,09,,158.43,M,49.060,M,,*66
$GPRMC,144951.10,A,4816.5885660,N,00333.1096620,W,0.0233,0.000,090824,-1.0,W*4e
$GPGSA,A,3,4,5,6,7,9,11,20,,,,,,,,*27
$GPZDA,144951.20,09,08,2024,00,00*6D
$GPGGA,144951.20,4816.5885660,N,00333.1096620,W,1,09,,158.43,M,49.060,M,,*65
$GPRMC,144951.20,A,4816.5885660,N,00333.1096620,W,0.0292,0.000,090824,-1.0,W*46
$GPGSA,A,3,4,5,6,7,9,11,20,,,,,,,,*27
$GPZDA,144951.30,09,08,2024,00,00*6C
$GPGGA,144951.30,4816.5885660,N,00333.1096680,W,1,09,,158.44,M,49.060,M,,*69
$GPRMC,144951.30,A,4816.5885660,N,00333.1096680,W,0.0233,0.000,090824,-1.0,W*46
$GPGSA,A,3,4,5,6,7,9,11,20,,,,,,,,*27
$GPZDA,144951.40,09,08,2024,00,00*6B
$GPGGA,144951.40,4816.5885600,N,00333.1096680,W,1,09,,158.45,M,49.060,M,,*69
$GPRMC,144951.40,A,4816.5885600,N,00333.1096680,W,0.0292,0.000,090824,-1.0,W*4c
$GPGSA,A,3,4,5,6,7,9,11,20,,,,,,,,*27
$GPZDA,144951.50,09,08,2024,00,00*6A
$GPGGA,144951.50,4816.5885600,N,00333.1096620,W,1,09,,158.45,M,49.060,M,,*62
$GPRMC,144951.50,A,4816.5885600,N,00333.1096620,W,0.0389,0.000,090824,-1.0,W*4c
$GPGSA,A,3,4,5,6,7,9,11,20,,,,,,,,*27
$GPZDA,144951.60,09,08,2024,00,00*69
$GPGGA,144951.60,4816.5885600,N,00333.1096680,W,1,09,,158.47,M,49.060,M,,*69
$GPRMC,144951.60,A,4816.5885600,N,00333.1096680,W,0.0272,0.000,090824,-1.0,W*40
$GPGSA,A,3,4,5,6,7,9,11,20,,,,,,,,*27
$GPGSV,4,1,13,04,19,063,40,05,16,298,37,06,44,193,46,07,56,132,47*7E
$GPGSV,4,2,13,09,55,061,48,11,57,266,45,20,45,301,44,28,-44,009,00*51
$GPGSV,4,3,13,29,10,324,42,30,36,175,46,33,33,196,00,37,30,148,00*76
$GPGSV,4,4,13,39,28,144,00*4A
$GPZDA,144951.70,09,08,2024,00,00*68
$GPGGA,144951.70,4816.5885600,N,00333.1096680,W,1,09,,158.48,M,49.060,M,,*67
$GPRMC,144951.70,A,4816.5885600,N,00333.1096680,W,0.0019,0.000,090824,-1.0,W*4e
$GPGSA,A,3,4,5,6,7,9,11,20,,,,,,,,*27
$GPZDA,144951.90,09,08,2024,00,00*66
$GPGGA,144951.90,4816.5885600,N,00333.1096620,W,1,09,,158.50,M,49.060,M,,*6A
$GPRMC,144951.90,A,4816.5885600,N,00333.1096620,W,0.0272,0.000,090824,-1.0,W*45
$GPGSA,A,3,4,5,6,7,9,11,20,,,,,,,,*27
$GPZDA,144952.00,09,08,2024,00,00*6C
$GPGGA,144952.00,4816.5885600,N,00333.1096680,W,1,09,,158.50,M,49.060,M,,*6A
$GPRMC,144952.00,A,4816.5885600,N,00333.1096680,W,0.0194,0.000,090824,-1.0,W*4e
$GPGSA,A,3,4,5,6,7,9,11,20,,,,,,,,*27
$GPZDA,144952.10,09,08,2024,00,00*6D
$GPGGA,144952.10,4816.5885600,N,00333.1096680,W,1,09,,158.50,M,49.060,M,,*6B
$GPRMC,144952.10,A,4816.5885600,N,00333.1096680,W,0.0175,0.000,090824,-1.0,W*40
$GPGSA,A,3,4,5,6,7,9,11,20,,,,,,,,*27
$GPZDA,144952.20,09,08,2024,00,00*6E
$GPGGA,144952.20,4816.5885600,N,00333.1096680,W,1,09,,158.50,M,49.060,M,,*68
$GPRMC,144952.20,A,4816.5885600,N,00333.1096680,W,0.0078,0.000,090824,-1.0,W*4f
$GPGSA,A,3,4,5,6,7,9,11,20,,,,,,,,*27
$GPZDA,144952.30,09,08,2024,00,00*6F
$GPGGA,144952.30,4816.5885600,N,00333.1096680,W,1,09,,158.51,M,49.060,M,,*68
$GPRMC,144952.30,A,4816.5885600,N,00333.1096680,W,0.0117,0.000,090824,-1.0,W*46
$GPGSA,A,3,4,5,6,7,9,11,20,,,,,,,,*27
$GPZDA,144952.40,09,08,2024,00,00*68
$GPGGA,144952.40,4816.5885600,N,00333.1096680,W,1,09,,158.51,M,49.060,M,,*6F
$GPRMC,144952.40,A,4816.5885600,N,00333.1096680,W,0.0175,0.000,090824,-1.0,W*45
$GPGSA,A,3,4,5,6,7,9,11,20,,,,,,,,*27
$GPZDA,144952.50,09,08,2024,00,00*69
$GPGGA,144952.50,4816.5885600,N,00333.1096680,W,1,09,,158.51,M,49.060,M,,*6E
$GPRMC,144952.50,A,4816.5885600,N,00333.1096680,W,0.0272,0.000,090824,-1.0,W*40
$GPGSA,A,3,4,5,6,7,9,11,20,,,,,,,,*27
$GPZDA,144952.60,09,08,2024,00,00*6A
$GPGGA,144952.60,4816.5885600,N,00333.1096680,W,1,09,,158.51,M,49.060,M,,*6D
$GPRMC,144952.60,A,4816.5885600,N,00333.1096680,W,0.0156,0.000,090824,-1.0,W*46
$GPGSA,A,3,4,5,6,7,9,11,20,,,,,,,,*27
$GPGSV,3,1,12,04,19,063,40,05,16,298,36,06,44,193,46,07,56,132,47*79
$GPGSV,3,2,12,09,55,061,48,11,57,266,45,20,45,301,44,29,10,324,42*70
$GPGSV,3,3,12,30,36,175,46,33,33,196,00,37,30,148,00,39,28,144,00*78
$GPZDA,144952.70,09,08,2024,00,00*6B
$GPGGA,144952.70,4816.5885540,N,00333.1096680,W,1,08,,158.52,M,49.060,M,,*69
$GPRMC,144952.70,A,4816.5885540,N,00333.1096680,W,0.0156,0.000,090824,-1.0,W*40
$GPGSA,A,3,4,6,7,9,11,20,,,,,,,,,*12
$GPZDA,144952.90,09,08,2024,00,00*65
$GPGGA,144952.90,4816.5885540,N,00333.1096740,W,1,08,,158.52,M,49.060,M,,*6A
$GPRMC,144952.90,A,4816.5885540,N,00333.1096740,W,0.0330,0.000,090824,-1.0,W*41
$GPGSA,A,3,4,6,7,9,11,20,,,,,,,,,*12
$GPZDA,144953.00,09,08,2024,00,00*6D
$GPGGA,144953.00,4816.5885540,N,00333.1096740,W,1,08,,158.52,M,49.060,M,,*62
$GPRMC,144953.00,A,4816.5885540,N,00333.1096740,W,0.0136,0.000,090824,-1.0,W*4d
$GPGSA,A,3,4,6,7,9,11,20,,,,,,,,,*12
$GPZDA,144953.10,09,08,2024,00,00*6C
$GPGGA,144953.10,4816.5885540,N,00333.1096740,W,1,08,,158.53,M,49.060,M,,*62
$GPRMC,144953.10,A,4816.5885540,N,00333.1096740,W,0.0467,0.000,090824,-1.0,W*4d
$GPGSA,A,3,4,6,7,9,11,20,,,,,,,,,*12
$GPZDA,144953.20,09,08,2024,00,00*6F
$GPGGA,144953.20,4816.5885540,N,00333.1096740,W,1,08,,158.53,M,49.060,M,,*61
$GPRMC,144953.20,A,4816.5885540,N,00333.1096740,W,0.0428,0.000,090824,-1.0,W*45
$GPGSA,A,3,4,6,7,9,11,20,,,,,,,,,*12
$GPZDA,144953.30,09,08,2024,00,00*6E
$GPGGA,144953.30,4816.5885540,N,00333.1096740,W,1,08,,158.54,M,49.060,M,,*67
$GPRMC,144953.30,A,4816.5885540,N,00333.1096740,W,0.0389,0.000,090824,-1.0,W*48
$GPGSA,A,3,4,6,7,9,11,20,,,,,,,,,*12
$GPZDA,144953.40,09,08,2024,00,00*69
$GPGGA,144953.40,4816.5885540,N,00333.1096740,W,1,08,,158.54,M,49.060,M,,*60
$GPRMC,144953.40,A,4816.5885540,N,00333.1096740,W,0.0078,0.000,090824,-1.0,W*42
$GPGSA,A,3,4,6,7,9,11,20,,,,,,,,,*12
$GPZDA,144953.50,09,08,2024,00,00*68
$GPGGA,144953.50,4816.5885540,N,00333.1096740,W,1,08,,158.54,M,49.060,M,,*61
$GPRMC,144953.50,A,4816.5885540,N,00333.1096740,W,0.0078,0.000,090824,-1.0,W*43
$GPGSA,A,3,4,6,7,9,11,20,,,,,,,,,*12
$GPZDA,144953.60,09,08,2024,00,00*6B
$GPGGA,144953.60,4816.5885540,N,00333.1096740,W,1,08,,158.55,M,49.060,M,,*63
$GPRMC,144953.60,A,4816.5885540,N,00333.1096740,W,0.0622,0.000,090824,-1.0,W*49
$GPGSA,A,3,4,6,7,9,11,20,,,,,,,,,*12
$GPGSV,3,1,12,04,19,063,40,05,16,298,37,06,44,193,47,07,56,132,47*79
$GPGSV,3,2,12,09,55,061,48,11,57,266,45,20,45,301,44,29,10,324,41*73
$GPGSV,3,3,12,30,36,175,47,33,33,196,00,37,30,148,00,39,28,144,00*79
$GPZDA,144953.70,09,08,2024,00,00*6A
$GPGGA,144953.70,4816.5885540,N,00333.1096740,W,1,09,,158.54,M,49.060,M,,*62
$GPRMC,144953.70,A,4816.5885540,N,00333.1096740,W,0.0739,0.000,090824,-1.0,W*43
$GPGSA,A,3,4,5,6,7,9,11,20,,,,,,,,*27
$GPZDA,144953.90,09,08,2024,00,00*64
$GPGGA,144953.90,4816.5885540,N,00333.1096740,W,1,09,,158.55,M,49.060,M,,*6D
$GPRMC,144953.90,A,4816.5885540,N,00333.1096740,W,0.0097,0.000,090824,-1.0,W*4e
$GPGSA,A,3,4,5,6,7,9,11,20,,,,,,,,*27
$GPZDA,144954.00,09,08,2024,00,00*6A
$GPGGA,144954.00,4816.5885540,N,00333.1096740,W,1,09,,158.55,M,49.060,M,,*63
$GPRMC,144954.00,A,4816.5885540,N,00333.1096740,W,0.0194,0.000,090824,-1.0,W*42
$GPGSA,A,3,4,5,6,7,9,11,20,,,,,,,,*27
$GPZDA,144954.10,09,08,2024,00,00*6B
$GPGGA,144954.10,4816.5885540,N,00333.1096680,W,1,09,,158.55,M,49.060,M,,*6F
$GPRMC,144954.10,A,4816.5885540,N,00333.1096680,W,0.0564,0.000,090824,-1.0,W*45
$GPGSA,A,3,4,5,6,7,9,11,20,,,,,,,,*27
$GPZDA,144954.20,09,08,2024,00,00*68
$GPGGA,144954.20,4816.5885540,N,00333.1096680,W,1,09,,158.55,M,49.060,M,,*6C
$GPRMC,144954.20,A,4816.5885540,N,00333.1096680,W,0.0058,0.000,090824,-1.0,W*4c
$GPGSA,A,3,4,5,6,7,9,11,20,,,,,,,,*27
$GPZDA,144954.30,09,08,2024,00,00*69
$GPGGA,144954.30,4816.5885540,N,00333.1096680,W,1,09,,158.55,M,49.060,M,,*6D
$GPRMC,144954.30,A,4816.5885540,N,00333.1096680,W,0.0136,0.000,090824,-1.0,W*44
$GPGSA,A,3,4,5,6,7,9,11,20,,,,,,,,*27
$GPZDA,144954.40,09,08,2024,00,00*6E
$GPGGA,144954.40,4816.5885540,N,00333.1096680,W,1,09,,158.55,M,49.060,M,,*6A
$GPRMC,144954.40,A,4816.5885540,N,00333.1096680,W,0.0097,0.000,090824,-1.0,W*49
$GPGSA,A,3,4,5,6,7,9,11,20,,,,,,,,*27
$GPZDA,144954.50,09,08,2024,00,00*6F
$GPGGA,144954.50,4816.5885540,N,00333.1096680,W,1,09,,158.56,M,49.060,M,,*68
$GPRMC,144954.50,A,4816.5885540,N,00333.1096680,W,0.0156,0.000,090824,-1.0,W*44
$GPGSA,A,3,4,5,6,7,9,11,20,,,,,,,,*27
$GPZDA,144954.60,09,08,2024,00,00*6C
$GPGGA,144954.60,4816.5885480,N,00333.1096680,W,1,09,,158.56,M,49.060,M,,*66
$GPRMC,144954.60,A,4816.5885480,N,00333.1096680,W,0.0214,0.000,090824,-1.0,W*4f
$GPGSA,A,3,4,5,6,7,9,11,20,,,,,,,,*27
$GPGSV,3,1,12,04,19,063,40,05,16,298,37,06,44,193,47,07,56,132,47*79
$GPGSV,3,2,12,09,55,061,48,11,57,266,45,20,45,301,44,29,10,324,41*73
$GPGSV,3,3,12,30,36,175,47,33,33,196,00,37,30,148,00,39,28,144,00*79
$GPZDA,144954.70,09,08,2024,00,00*6D
$GPGGA,144954.70,4816.5885480,N,00333.1096620,W,1,09,,158.56,M,49.060,M,,*6D
$GPRMC,144954.70,A,4816.5885480,N,00333.1096620,W,0.0117,0.000,090824,-1.0,W*44
$GPGSA,A,3,4,5,6,7,9,11,20,,,,,,,,*27
$GPZDA,144954.90,09,08,2024,00,00*63
$GPGGA,144954.90,4816.5885480,N,00333.1096620,W,1,09,,158.57,M,49.060,M,,*62
$GPRMC,144954.90,A,4816.5885480,N,00333.1096620,W,0.0097,0.000,090824,-1.0,W*43
$GPGSA,A,3,4,5,6,7,9,11,20,,,,,,,,*27
$GPZDA,144955.00,09,08,2024,00,00*6B
$GPGGA,144955.00,4816.5885540,N,00333.1096560,W,1,09,,158.57,M,49.060,M,,*60
$GPRMC,144955.00,A,4816.5885540,N,00333.1096560,W,0.0175,0.000,090824,-1.0,W*4c
$GPGSA,A,3,4,5,6,7,9,11,20,,,,,,,,*27
$GPZDA,144955.10,09,08,2024,00,00*6A
$GPGGA,144955.10,4816.5885540,N,00333.1096560,W,1,09,,158.58,M,49.060,M,,*6E
$GPRMC,144955.10,A,4816.5885540,N,00333.1096560,W,0.0156,0.000,090824,-1.0,W*4c
$GPGSA,A,3,4,5,6,7,9,11,20,,,,,,,,*27
$GPZDA,144955.20,09,08,2024,00,00*69
$GPGGA,144955.20,4816.5885540,N,00333.1096560,W,1,09,,158.58,M,49.060,M,,*6D
$GPRMC,144955.20,A,4816.5885540,N,00333.1096560,W,0.0272,0.000,090824,-1.0,W*4a
$GPGSA,A,3,4,5,6,7,9,11,20,,,,,,,,*27
$GPZDA,144955.30,09,08,2024,00,00*68
$GPGGA,144955.30,4816.5885540,N,00333.1096500,W,1,09,,158.59,M,49.060,M,,*6B
$GPRMC,144955.30,A,4816.5885540,N,00333.1096500,W,0.0369,0.000,090824,-1.0,W*46
$GPGSA,A,3,4,5,6,7,9,11,20,,,,,,,,*27
$GPZDA,144955.40,09,08,2024,00,00*6F
$GPGGA,144955.40,4816.5885480,N,00333.1096500,W,1,09,,158.59,M,49.060,M,,*61
$GPRMC,144955.40,A,4816.5885480,N,00333.1096500,W,0.0447,0.000,090824,-1.0,W*47
$GPGSA,A,3,4,5,6,7,9,11,20,,,,,,,,*27
$GPZDA,144955.50,09,08,2024,00,00*6E
$GPGGA,144955.50,4816.5885540,N,00333.1096500,W,1,09,,158.60,M,49.060,M,,*67
$GPRMC,144955.50,A,4816.5885540,N,00333.1096500,W,0.0330,0.000,090824,-1.0,W*4c
$GPGSA,A,3,4,5,6,7,9,11,20,,,,,,,,*27
$GPZDA,144955.60,09,08,2024,00,00*6D
$GPGGA,144955.60,4816.5885540,N,00333.1096440,W,1,09,,158.61,M,49.060,M,,*60
$GPRMC,144955.60,A,4816.5885540,N,00333.1096440,W,0.0350,0.000,090824,-1.0,W*4c
$GPGSA,A,3,4,5,6,7,9,11,20,,,,,,,,*27
$GPGSV,3,1,12,04,19,063,40,05,16,298,37,06,44,193,47,07,56,132,47*79
$GPGSV,3,2,12,09,55,061,48,11,57,266,45,20,45,301,44,29,10,324,40*72
$GPGSV,3,3,12,30,36,175,47,33,33,196,00,37,30,148,00,39,28,144,00*79
$GPZDA,144955.70,09,08,2024,00,00*6C
$GPGGA,144955.70,4816.5885540,N,00333.1096440,W,1,09,,158.62,M,49.060,M,,*62
$GPRMC,144955.70,A,4816.5885540,N,00333.1096440,W,0.0214,0.000,090824,-1.0,W*4c
$GPGSA,A,3,4,5,6,7,9,11,20,,,,,,,,*27
$GPZDA,144955.90,09,08,2024,00,00*62
$GPGGA,144955.90,4816.5885540,N,00333.1096440,W,1,09,,158.61,M,49.060,M,,*6F
$GPRMC,144955.90,A,4816.5885540,N,00333.1096440,W,0.0292,0.000,090824,-1.0,W*4c
$GPGSA,A,3,4,5,6,7,9,11,20,,,,,,,,*27
$GPZDA,144956.00,09,08,2024,00,00*68
$GPGGA,144956.00,4816.5885540,N,00333.1096380,W,1,09,,158.61,M,49.060,M,,*6E
$GPRMC,144956.00,A,4816.5885540,N,00333.1096380,W,0.0233,0.000,090824,-1.0,W*46
$GPGSA,A,3,4,5,6,7,9,11,20,,,,,,,,*27
$GPZDA,144956.10,09,08,2024,00,00*69
$GPGGA,144956.10,4816.5885540,N,00333.1096380,W,1,09,,158.61,M,49.060,M,,*6F
$GPRMC,144956.10,A,4816.5885540,N,00333.1096380,W,0.0214,0.000,090824,-1.0,W*42
$GPGSA,A,3,4,5,6,7,9,11,20,,,,,,,,*27
$GPZDA,144956.20,09,08,2024,00,00*6A
$GPGGA,144956.20,4816.5885540,N,00333.1096380,W,1,09,,158.61,M,49.060,M,,*6C
$GPRMC,144956.20,A,4816.5885540,N,00333.1096380,W,0.0408,0.000,090824,-1.0,W*4a
$GPGSA,A,3,4,5,6,7,9,11,20,,,,,,,,*27
$GPZDA,144956.30,09,08,2024,00,00*6B
$GPGGA,144956.30,4816.5885600,N,00333.1096380,W,1,09,,158.61,M,49.060,M,,*6A
$GPRMC,144956.30,A,4816.5885600,N,00333.1096380,W,0.0272,0.000,090824,-1.0,W*47
$GPGSA,A,3,4,5,6,7,9,11,20,,,,,,,,*27
$GPZDA,144956.40,09,08,2024,00,00*6C
$GPGGA,144956.40,4816.5885600,N,00333.1096380,W,1,09,,158.61,M,49.060,M,,*6D
$GPRMC,144956.40,A,4816.5885600,N,00333.1096380,W,0.0253,0.000,090824,-1.0,W*43
$GPGSA,A,3,4,5,6,7,9,11,20,,,,,,,,*27
$GPZDA,144956.50,09,08,2024,00,00*6D
$GPGGA,144956.50,4816.5885600,N,00333.1096320,W,1,09,,158.61,M,49.060,M,,*66
$GPRMC,144956.50,A,4816.5885600,N,00333.1096320,W,0.0117,0.000,090824,-1.0,W*4b
$GPGSA,A,3,4,5,6,7,9,11,20,,,,,,,,*27
$GPZDA,144956.60,09,08,2024,00,00*6E
$GPGGA,144956.60,4816.5885600,N,00333.1096320,W,1,09,,158.61,M,49.060,M,,*65
$GPRMC,144956.60,A,4816.5885600,N,00333.1096320,W,0.0214,0.000,090824,-1.0,W*48
$GPGSA,A,3,4,5,6,7,9,11,20,,,,,,,,*27
$GPGSV,3,1,12,04,19,063,40,05,16,298,37,06,44,193,47,07,56,132,47*79
$GPGSV,3,2,12,09,55,061,48,11,57,266,45,20,45,301,44,29,10,324,40*72
$GPGSV,3,3,12,30,36,175,47,33,33,196,00,37,30,148,00,39,28,144,00*79
$GPZDA,144956.70,09,08,2024,00,00*6F
$GPGGA,144956.70,4816.5885600,N,00333.1096320,W,1,09,,158.61,M,49.060,M,,*64
$GPRMC,144956.70,A,4816.5885600,N,00333.1096320,W,0.0136,0.000,090824,-1.0,W*4a
$GPGSA,A,3,4,5,6,7,9,11,20,,,,,,,,*27
$GPZDA,144956.90,09,08,2024,00,00*61
$GPGGA,144956.90,4816.5885600,N,00333.1096320,W,1,09,,158.60,M,49.060,M,,*6B
$GPRMC,144956.90,A,4816.5885600,N,00333.1096320,W,0.0233,0.000,090824,-1.0,W*42
$GPGSA,A,3,4,5,6,7,9,11,20,,,,,,,,*27
$GPZDA,144957.00,09,08,2024,00,00*69
$GPGGA,144957.00,4816.5885660,N,00333.1096320,W,1,09,,158.60,M,49.060,M,,*65
$GPRMC,144957.00,A,4816.5885660,N,00333.1096320,W,0.0447,0.000,090824,-1.0,W*49
$GPGSA,A,3,4,5,6,7,9,11,20,,,,,,,,*27
$GPZDA,144957.10,09,08,2024,00,00*68
$GPGGA,144957.10,4816.5885660,N,00333.1096320,W,1,09,,158.60,M,49.060,M,,*64
$GPRMC,144957.10,A,4816.5885660,N,00333.1096320,W,0.0233,0.000,090824,-1.0,W*4d
$GPGSA,A,3,4,5,6,7,9,11,20,,,,,,,,*27
$GPZDA,144957.20,09,08,2024,00,00*6B
$GPGGA,144957.20,4816.5885660,N,00333.1096320,W,1,09,,158.60,M,49.060,M,,*67
$GPRMC,144957.20,A,4816.5885660,N,00333.1096320,W,0.0136,0.000,090824,-1.0,W*48
$GPGSA,A,3,4,5,6,7,9,11,20,,,,,,,,*27
$GPZDA,144957.30,09,08,2024,00,00*6A
$GPGGA,144957.30,4816.5885660,N,00333.1096320,W,1,09,,158.60,M,49.060,M,,*66
$GPRMC,144957.30,A,4816.5885660,N,00333.1096320,W,0.0078,0.000,090824,-1.0,W*42
$GPGSA,A,3,4,5,6,7,9,11,20,,,,,,,,*27
$GPZDA,144957.40,09,08,2024,00,00*6D
$GPGGA,144957.40,4816.5885720,N,00333.1096260,W,1,09,,158.59,M,49.060,M,,*6B
$GPRMC,144957.40,A,4816.5885720,N,00333.1096260,W,0.0330,0.000,090824,-1.0,W*4a
$GPGSA,A,3,4,5,6,7,9,11,20,,,,,,,,*27
$GPZDA,144957.50,09,08,2024,00,00*6C
$GPGGA,144957.50,4816.5885720,N,00333.1096260,W,1,09,,158.59,M,49.060,M,,*6A
$GPRMC,144957.50,A,4816.5885720,N,00333.1096260,W,0.0078,0.000,090824,-1.0,W*44
$GPGSA,A,3,4,5,6,7,9,11,20,,,,,,,,*27
$GPZDA,144957.60,09,08,2024,00,00*6F
$GPGGA,144957.60,4816.5885720,N,00333.1096260,W,1,09,,158.59,M,49.060,M,,*69
$GPRMC,144957.60,A,4816.5885720,N,00333.1096260,W,0.0233,0.000,090824,-1.0,W*4a
$GPGSA,A,3,4,5,6,7,9,11,20,,,,,,,,*27
$GPGSV,3,1,12,04,19,063,39,05,16,298,38,06,44,193,47,07,56,132,47*78
$GPGSV,3,2,12,09,55,061,48,11,57,266,45,20,45,301,44,29,10,324,40*72
$GPGSV,3,3,12,30,36,175,47,33,33,196,00,37,30,148,00,39,28,144,00*79
$GPZDA,144957.70,09,08,2024,00,00*6E
$GPGGA,144957.70,4816.5885720,N,00333.1096260,W,1,09,,158.58,M,49.060,M,,*69
$GPRMC,144957.70,A,4816.5885720,N,00333.1096260,W,0.0272,0.000,090824,-1.0,W*4e
$GPGSA,A,3,4,5,6,7,9,11,20,,,,,,,,*27
$GPZDA,144957.90,09,08,2024,00,00*60
$GPGGA,144957.90,4816.5885780,N,00333.1096200,W,1,09,,158.58,M,49.060,M,,*6B
$GPRMC,144957.90,A,4816.5885780,N,00333.1096200,W,0.0194,0.000,090824,-1.0,W*47
$GPGSA,A,3,4,5,6,7,9,11,20,,,,,,,,*27
$GPZDA,144958.00,09,08,2024,00,00*66
$GPGGA,144958.00,4816.5885780,N,00333.1096200,W,1,09,,158.57,M,49.060,M,,*62
$GPRMC,144958.00,A,4816.5885780,N,00333.1096200,W,0.0117,0.000,090824,-1.0,W*4a
$GPGSA,A,3,4,5,6,7,9,11,20,,,,,,,,*27
$GPZDA,144958.10,09,08,2024,00,00*67
$GPGGA,144958.10,4816.5885840,N,00333.1096200,W,1,09,,158.56,M,49.060,M,,*61
$GPRMC,144958.10,A,4816.5885840,N,00333.1096200,W,0.0136,0.000,090824,-1.0,W*4b
$GPGSA,A,3,4,5,6,7,9,11,20,,,,,,,,*27
$GPZDA,144958.20,09,08,2024,00,00*64
$GPGGA,144958.20,4816.5885840,N,00333.1096200,W,1,09,,158.55,M,49.060,M,,*61
$GPRMC,144958.20,A,4816.5885840,N,00333.1096200,W,0.0253,0.000,090824,-1.0,W*48
$GPGSA,A,3,4,5,6,7,9,11,20,,,,,,,,*27
$GPZDA,144958.30,09,08,2024,00,00*65
$GPGGA,144958.30,4816.5885840,N,00333.1096200,W,1,09,,158.55,M,49.060,M,,*60
$GPRMC,144958.30,A,4816.5885840,N,00333.1096200,W,0.0428,0.000,090824,-1.0,W*43
$GPGSA,A,3,4,5,6,7,9,11,20,,,,,,,,*27
$GPZDA,144958.40,09,08,2024,00,00*62
$GPGGA,144958.40,4816.5885840,N,00333.1096140,W,1,09,,158.54,M,49.060,M,,*61
$GPRMC,144958.40,A,4816.5885840,N,00333.1096140,W,0.0525,0.000,090824,-1.0,W*4f
$GPGSA,A,3,4,5,6,7,9,11,20,,,,,,,,*27
$GPZDA,144958.50,09,08,2024,00,00*63
$GPGGA,144958.50,4816.5885900,N,00333.1096140,W,1,09,,158.53,M,49.060,M,,*62
$GPRMC,144958.50,A,4816.5885900,N,00333.1096140,W,0.0292,0.000,090824,-1.0,W*40
$GPGSA,A,3,4,5,6,7,9,11,20,,,,,,,,*27
$GPZDA,144958.60,09,08,2024,00,00*60
$GPGGA,144958.60,4816.5885900,N,00333.1096140,W,1,09,,158.53,M,49.060,M,,*61
$GPRMC,144958.60,A,4816.5885900,N,00333.1096140,W,0.0350,0.000,090824,-1.0,W*4c
$GPGSA,A,3,4,5,6,7,9,11,20,,,,,,,,*27
$GPGSV,3,1,12,04,19,063,39,05,16,298,38,06,44,193,47,07,56,132,47*78
$GPGSV,3,2,12,09,55,061,48,11,57,266,45,20,45,301,44,29,10,324,40*72
$GPGSV,3,3,12,30,36,175,47,33,33,196,00,37,30,148,00,39,28,144,00*79
$GPZDA,144958.70,09,08,2024,00,00*61
$GPGGA,144958.70,4816.5885900,N,00333.1096140,W,1,09,,158.53,M,49.060,M,,*60
$GPRMC,144958.70,A,4816.5885900,N,00333.1096140,W,0.0486,0.000,090824,-1.0,W*41
$GPGSA,A,3,4,5,6,7,9,11,20,,,,,,,,*27
$GPZDA,144958.90,09,08,2024,00,00*6F
$GPGGA,144958.90,4816.5885960,N,00333.1096080,W,1,09,,158.51,M,49.060,M,,*67
$GPRMC,144958.90,A,4816.5885960,N,00333.1096080,W,0.0156,0.000,090824,-1.0,W*4c
$GPGSA,A,3,4,5,6,7,9,11,20,,,,,,,,*27
$GPZDA,144959.00,09,08,2024,00,00*67
$GPGGA,144959.00,4816.5886020,N,00333.1096080,W,1,09,,158.51,M,49.060,M,,*61
$GPRMC,144959.00,A,4816.5886020,N,00333.1096080,W,0.0505,0.000,090824,-1.0,W*48
$GPGSA,A,3,4,5,6,7,9,11,20,,,,,,,,*27
$GPZDA,144959.10,09,08,2024,00,00*66
$GPGGA,144959.10,4816.5886020,N,00333.1096080,W,1,09,,158.50,M,49.060,M,,*61
$GPRMC,144959.10,A,4816.5886020,N,00333.1096080,W,0.0156,0.000,090824,-1.0,W*4b
$GPGSA,A,3,4,5,6,7,9,11,20,,,,,,,,*27
$GPZDA,144959.20,09,08,2024,00,00*65
$GPGGA,144959.20,4816.5886020,N,00333.1096080,W,1,09,,158.49,M,49.060,M,,*6A
$GPRMC,144959.20,A,4816.5886020,N,00333.1096080,W,0.0175,0.000,090824,-1.0,W*49
$GPGSA,A,3,4,5,6,7,9,11,20,,,,,,,,*27
$GPZDA,144959.30,09,08,2024,00,00*64
$GPGGA,144959.30,4816.5886080,N,00333.1096020,W,1,09,,158.49,M,49.060,M,,*6B
$GPRMC,144959.30,A,4816.5886080,N,00333.1096020,W,0.0078,0.000,090824,-1.0,W*44
$GPGSA,A,3,4,5,6,7,9,11,20,,,,,,,,*27
$GPZDA,144959.40,09,08,2024,00,00*63
$GPGGA,144959.40,4816.5886080,N,00333.1096020,W,1,09,,158.48,M,49.060,M,,*6D
$GPRMC,144959.40,A,4816.5886080,N,00333.1096020,W,0.0408,0.000,090824,-1.0,W*40
$GPGSA,A,3,4,5,6,7,9,11,20,,,,,,,,*27
$GPZDA,144959.50,09,08,2024,00,00*62
$GPGGA,144959.50,4816.5886080,N,00333.1096020,W,1,09,,158.47,M,49.060,M,,*63
$GPRMC,144959.50,A,4816.5886080,N,00333.1096020,W,0.0408,0.000,090824,-1.0,W*41
$GPGSA,A,3,4,5,6,7,9,11,20,,,,,,,,*27
$GPZDA,144959.60,09,08,2024,00,00*61
$GPGGA,144959.60,4816.5886140,N,00333.1096020,W,1,09,,158.46,M,49.060,M,,*6C
$GPRMC,144959.60,A,4816.5886140,N,00333.1096020,W,0.0389,0.000,090824,-1.0,W*41
$GPGSA,A,3,4,5,6,7,9,11,20,,,,,,,,*27
$GPGSV,3,1,12,04,19,063,39,05,16,298,38,06,44,193,47,07,56,132,47*78
$GPGSV,3,2,12,09,55,061,48,11,57,266,45,20,45,301,43,29,10,324,39*7B
$GPGSV,3,3,12,30,36,175,47,33,33,196,27,37,30,148,00,39,28,144,00*7C
$GPZDA,144959.70,09,08,2024,00,00*60
$GPGGA,144959.70,4816.5886140,N,00333.1096020,W,1,08,,158.45,M,49.060,M,,*6F
$GPRMC,144959.70,A,4816.5886140,N,00333.1096020,W,0.0525,0.000,090824,-1.0,W*40
$GPGSA,A,3,4,6,7,9,11,20,,,,,,,,,*12
$GPZDA,144959.90,09,08,2024,00,00*6E
$GPGGA,144959.90,4816.5886200,N,00333.1096020,W,1,08,,158.42,M,49.060,M,,*61
$GPRMC,144959.90,A,4816.5886200,N,00333.1096020,W,0.0350,0.000,090824,-1.0,W*4d
$GPGSA,A,3,4,6,7,9,11,20,,,,,,,,,*12
$GPZDA,145000.00,09,08,2024,00,00*63
$GPGGA,145000.00,4816.5886260,N,00333.1096020,W,1,08,,158.41,M,49.060,M,,*69
$GPRMC,145000.00,A,4816.5886260,N,00333.1096020,W,0.0175,0.000,090824,-1.0,W*43
$GPGSA,A,3,4,6,7,9,11,20,,,,,,,,,*12
$GPZDA,145000.10,09,08,2024,00,00*62
$GPGGA,145000.10,4816.5886260,N,00333.1096020,W,1,08,,158.39,M,49.060,M,,*67
$GPRMC,145000.10,A,4816.5886260,N,00333.1096020,W,0.0019,0.000,090824,-1.0,W*49
$GPGSA,A,3,4,6,7,9,11,20,,,,,,,,,*12
$GPZDA,145000.20,09,08,2024,00,00*61
$GPGGA,145000.20,4816.5886260,N,00333.1096020,W,1,08,,158.38,M,49.060,M,,*65
$GPRMC,145000.20,A,4816.5886260,N,00333.1096020,W,0.0272,0.000,090824,-1.0,W*45
$GPGSA,A,3,4,6,7,9,11,20,,,,,,,,,*12
$GPZDA,145000.30,09,08,2024,00,00*60
$GPGGA,145000.30,4816.5886320,N,00333.1096080,W,1,08,,158.36,M,49.060,M,,*65
$GPRMC,145000.30,A,4816.5886320,N,00333.1096080,W,0.0233,0.000,090824,-1.0,W*4e
$GPGSA,A,3,4,6,7,9,11,20,,,,,,,,,*12
$GPZDA,145000.40,09,08,2024,00,00*67
$GPGGA,145000.40,4816.5886320,N,00333.1096080,W,1,08,,158.35,M,49.060,M,,*61
$GPRMC,145000.40,A,4816.5886320,N,00333.1096080,W,0.0311,0.000,090824,-1.0,W*48
$GPGSA,A,3,4,6,7,9,11,20,,,,,,,,,*12
$GPZDA,145000.50,09,08,2024,00,00*66
$GPGGA,145000.50,4816.5886380,N,00333.1096080,W,1,08,,158.34,M,49.060,M,,*6B
$GPRMC,145000.50,A,4816.5886380,N,00333.1096080,W,0.0214,0.000,090824,-1.0,W*47
$GPGSA,A,3,4,6,7,9,11,20,,,,,,,,,*12
$GPZDA,145000.60,09,08,2024,00,00*65
$GPGGA,145000.60,4816.5886380,N,00333.1096080,W,1,08,,158.33,M,49.060,M,,*6F
$GPRMC,145000.60,A,4816.5886380,N,00333.1096080,W,0.0408,0.000,090824,-1.0,W*4f
$GPGSA,A,3,4,6,7,9,11,20,,,,,,,,,*12
$GPGSV,3,1,12,04,19,063,39,05,16,298,38,06,44,193,47,07,56,132,47*78
$GPGSV,3,2,12,09,55,061,48,11,57,266,45,20,45,301,43,29,10,324,39*7B
$GPGSV,3,3,12,30,36,175,47,33,33,196,00,37,30,148,00,39,28,144,00*79
$GPZDA,145000.70,09,08,2024,00,00*64
$GPGGA,145000.70,4816.5886440,N,00333.1096080,W,1,09,,158.31,M,49.060,M,,*66
$GPRMC,145000.70,A,4816.5886440,N,00333.1096080,W,0.0117,0.000,090824,-1.0,W*4e
$GPGSA,A,3,4,5,6,7,9,11,20,,,,,,,,*27
$GPZDA,145000.90,09,08,2024,00,00*6A
$GPGGA,145000.90,4816.5886500,N,00333.1096140,W,1,09,,158.28,M,49.060,M,,*68
$GPRMC,145000.90,A,4816.5886500,N,00333.1096140,W,0.0292,0.000,090824,-1.0,W*46
$GPGSA,A,3,4,5,6,7,9,11,20,,,,,,,,*27
$GPZDA,145001.00,09,08,2024,00,00*62
$GPGGA,145001.00,4816.5886500,N,00333.1096140,W,1,09,,158.27,M,49.060,M,,*6F
$GPRMC,145001.00,A,4816.5886500,N,00333.1096140,W,0.0350,0.000,090824,-1.0,W*41
$GPGSA,A,3,4,5,6,7,9,11,20,,,,,,,,*27
$GPZDA,145001.10,09,08,2024,00,00*63
$GPGGA,145001.10,4816.5886500,N,00333.1096140,W,1,09,,158.25,M,49.060,M,,*6C
$GPRMC,145001.10,A,4816.5886500,N,00333.1096140,W,0.0156,0.000,090824,-1.0,W*44
$GPGSA,A,3,4,5,6,7,9,11,20,,,,,,,,*27
$GPZDA,145001.20,09,08,2024,00,00*60
$GPGGA,145001.20,4816.5886560,N,00333.1096200,W,1,09,,158.23,M,49.060,M,,*68
$GPRMC,145001.20,A,4816.5886560,N,00333.1096200,W,0.0330,0.000,090824,-1.0,W*44
$GPGSA,A,3,4,5,6,7,9,11,20,,,,,,,,*27
$GPZDA,145001.30,09,08,2024,00,00*61
$GPGGA,145001.30,4816.5886560,N,00333.1096200,W,1,09,,158.23,M,49.060,M,,*69
$GPRMC,145001.30,A,4816.5886560,N,00333.1096200,W,0.0194,0.000,090824,-1.0,W*49
$GPGSA,A,3,4,5,6,7,9,11,20,,,,,,,,*27
$GPZDA,145001.40,09,08,2024,00,00*66
$GPGGA,145001.40,4816.5886620,N,00333.1096260,W,1,09,,158.20,M,49.060,M,,*6C
$GPRMC,145001.40,A,4816.5886620,N,00333.1096260,W,0.0428,0.000,090824,-1.0,W*4d
$GPGSA,A,3,4,5,6,7,9,11,20,,,,,,,,*27
$GPZDA,145001.50,09,08,2024,00,00*67
$GPGGA,145001.50,4816.5886620,N,00333.1096260,W,1,09,,158.20,M,49.060,M,,*6D
$GPRMC,145001.50,A,4816.5886620,N,00333.1096260,W,0.0428,0.000,090824,-1.0,W*4c
$GPGSA,A,3,4,5,6,7,9,11,20,,,,,,,,*27
$GPZDA,145001.60,09,08,2024,00,00*64
$GPGGA,145001.60,4816.5886680,N,00333.1096260,W,1,09,,158.18,M,49.060,M,,*6F
$GPRMC,145001.60,A,4816.5886680,N,00333.1096260,W,0.0330,0.000,090824,-1.0,W*4b
$GPGSA,A,3,4,5,6,7,9,11,20,,,,,,,,*27
$GPGSV,3,1,12,04,19,063,39,05,16,298,38,06,44,193,47,07,56,132,47*78
$GPGSV,3,2,12,09,55,061,48,11,57,266,45,20,45,301,43,29,10,324,39*7B
$GPGSV,3,3,12,30,36,175,47,33,33,196,00,37,30,148,00,39,28,144,00*79
$GPZDA,145001.70,09,08,2024,00,00*65
$GPGGA,145001.70,4816.5886680,N,00333.1096260,W,1,09,,158.16,M,49.060,M,,*60
$GPRMC,145001.70,A,4816.5886680,N,00333.1096260,W,0.0117,0.000,090824,-1.0,W*4d
$GPGSA,A,3,4,5,6,7,9,11,20,,,,,,,,*27
$GPZDA,145001.90,09,08,2024,00,00*6B
$GPGGA,145001.90,4816.5886740,N,00333.1096320,W,1,09,,158.13,M,49.060,M,,*63
$GPRMC,145001.90,A,4816.5886740,N,00333.1096320,W,0.0175,0.000,090824,-1.0,W*4f
$GPGSA,A,3,4,5,6,7,9,11,20,,,,,,,,*27
$GPZDA,145002.00,09,08,2024,00,00*61
$GPGGA,145002.00,4816.5886740,N,00333.1096380,W,1,09,,158.12,M,49.060,M,,*62
$GPRMC,145002.00,A,4816.5886740,N,00333.1096380,W,0.0447,0.000,090824,-1.0,W*4b
$GPGSA,A,3,4,5,6,7,9,11,20,,,,,,,,*27
$GPZDA,145002.10,09,08,2024,00,00*60
$GPGGA,145002.10,4816.5886800,N,00333.1096380,W,1,09,,158.10,M,49.060,M,,*6A
$GPRMC,145002.10,A,4816.5886800,N,00333.1096380,W,0.0350,0.000,090824,-1.0,W*40
$GPGSA,A,3,4,5,6,7,9,11,20,,,,,,,,*27
$GPZDA,145002.20,09,08,2024,00,00*63
$GPGGA,145002.20,4816.5886800,N,00333.1096380,W,1,09,,158.08,M,49.060,M,,*60
$GPRMC,145002.20,A,4816.5886800,N,00333.1096380,W,0.0233,0.000,090824,-1.0,W*47
$GPGSA,A,3,4,5,6,7,9,11,20,,,,,,,,*27
$GPZDA,145002.30,09,08,2024,00,00*62
$GPGGA,145002.30,4816.5886800,N,00333.1096380,W,1,09,,158.06,M,49.060,M,,*6F
$GPRMC,145002.30,A,4816.5886800,N,00333.1096380,W,0.0253,0.000,090824,-1.0,W*40
$GPGSA,A,3,4,5,6,7,9,11,20,,,,,,,,*27
$GPZDA,145002.40,09,08,2024,00,00*65
$GPGGA,145002.40,4816.5886860,N,00333.1096440,W,1,09,,158.04,M,49.060,M,,*67
$GPRMC,145002.40,A,4816.5886860,N,00333.1096440,W,0.0078,0.000,090824,-1.0,W*41
$GPGSA,A,3,4,5,6,7,9,11,20,,,,,,,,*27
$GPZDA,145002.50,09,08,2024,00,00*64
$GPGGA,145002.50,4816.5886860,N,00333.1096440,W,1,09,,158.03,M,49.060,M,,*61
$GPRMC,145002.50,A,4816.5886860,N,00333.1096440,W,0.0253,0.000,090824,-1.0,W*4b
$GPGSA,A,3,4,5,6,7,9,11,20,,,,,,,,*27
$GPZDA,145002.60,09,08,2024,00,00*67
$GPGGA,145002.60,4816.5886860,N,00333.1096500,W,1,09,,158.02,M,49.060,M,,*66
$GPRMC,145002.60,A,4816.5886860,N,00333.1096500,W,0.0194,0.000,090824,-1.0,W*45
$GPGSA,A,3,4,5,6,7,9,11,20,,,,,,,,*27
$GPGSV,3,1,12,04,19,063,39,05,16,298,38,06,44,193,47,07,56,132,47*78
$GPGSV,3,2,12,09,55,061,48,11,57,266,45,20,45,301,43,29,10,324,39*7B
$GPGSV,3,3,12,30,36,175,47,33,33,196,00,37,30,148,00,39,28,144,00*79
$GPZDA,145002.70,09,08,2024,00,00*66
$GPGGA,145002.70,4816.5886920,N,00333.1096500,W,1,09,,158.00,M,49.060,M,,*60
$GPRMC,145002.70,A,4816.5886920,N,00333.1096500,W,0.0156,0.000,090824,-1.0,W*4f
$GPGSA,A,3,4,5,6,7,9,11,20,,,,,,,,*27
$GPZDA,145002.90,09,08,2024,00,00*68
$GPGGA,145002.90,4816.5886920,N,00333.1096560,W,1,09,,157.97,M,49.060,M,,*69
$GPRMC,145002.90,A,4816.5886920,N,00333.1096560,W,0.0369,0.000,090824,-1.0,W*49
$GPGSA,A,3,4,5,6,7,9,11,20,,,,,,,,*27
$GPZDA,145003.00,09,08,2024,00,00*60
$GPGGA,145003.00,4816.5886980,N,00333.1096560,W,1,09,,157.97,M,49.060,M,,*6B
$GPRMC,145003.00,A,4816.5886980,N,00333.1096560,W,0.0389,0.000,090824,-1.0,W*45
$GPGSA,A,3,4,5,6,7,9,11,20,,,,,,,,*27
$GPZDA,145003.10,09,08,2024,00,00*61
$GPGGA,145003.10,4816.5886980,N,00333.1096560,W,1,09,,157.96,M,49.060,M,,*6B
$GPRMC,145003.10,A,4816.5886980,N,00333.1096560,W,0.0253,0.000,090824,-1.0,W*42
$GPGSA,A,3,4,5,6,7,9,11,20,,,,,,,,*27
$GPZDA,145003.20,09,08,2024,00,00*62
$GPGGA,145003.20,4816.5886980,N,00333.1096620,W,1,09,,157.94,M,49.060,M,,*6D
$GPRMC,145003.20,A,4816.5886980,N,00333.1096620,W,0.0039,0.000,090824,-1.0,W*48
$GPGSA,A,3,4,5,6,7,9,11,20,,,,,,,,*27
$GPZDA,145003.30,09,08,2024,00,00*63
$GPGGA,145003.30,4816.5887040,N,00333.1096620,W,1,09,,157.92,M,49.060,M,,*6E
