$GPZDA,145228.10,09,08,2024,00,00*6A
$GPGGA,145228.10,4816.4704260,N,00332.2690620,W,1,09,,152.47,M,49.044,M,,*6B
$GPRMC,145228.10,A,4816.4704260,N,00332.2690620,W,31.9704,118.632,090824,-1.0,W*7e
$GPGSA,A,3,4,5,6,7,9,11,,,,,,,,,*25
$GPZDA,145228.20,09,08,2024,00,00*69
$GPGGA,145228.20,4816.4700000,N,00332.2678800,W,1,09,,152.39,M,49.044,M,,*6B
$GPRMC,145228.20,A,4816.4700000,N,00332.2678800,W,32.3125,118.343,090824,-1.0,W*78
$GPGSA,A,3,4,5,6,7,9,11,,,,,,,,,*25
$GPZDA,145228.30,09,08,2024,00,00*68
$GPGGA,145228.30,4816.4695740,N,00332.2666980,W,1,09,,152.30,M,49.044,M,,*6B
$GPRMC,145228.30,A,4816.4695740,N,00332.2666980,W,32.2192,118.446,090824,-1.0,W*7e
$GPGSA,A,3,4,5,6,7,9,11,,,,,,,,,*25
$GPZDA,145228.40,09,08,2024,00,00*6F
$GPGGA,145228.40,4816.4691540,N,00332.2655220,W,1,09,,152.27,M,49.044,M,,*6D
$GPRMC,145228.40,A,4816.4691540,N,00332.2655220,W,32.1862,118.251,090824,-1.0,W*7b
$GPGSA,A,3,4,5,6,7,9,11,,,,,,,,,*25
$GPZDA,145228.50,09,08,2024,00,00*6E
$GPGGA,145228.50,4816.4687280,N,00332.2643220,W,1,09,,152.19,M,49.044,M,,*6A
$GPRMC,145228.50,A,4816.4687280,N,00332.2643220,W,32.4797,117.971,090824,-1.0,W*77
$GPGSA,A,3,4,5,6,7,9,11,,,,,,,,,*25
$GPZDA,145228.60,09,08,2024,00,00*6D
$GPGGA,145228.60,4816.4683020,N,00332.2631220,W,1,09,,152.05,M,49.044,M,,*6D
$GPRMC,145228.60,A,4816.4683020,N,00332.2631220,W,32.4467,118.000,090824,-1.0,W*71
$GPGSA,A,3,4,5,6,7,9,11,,,,,,,,,*25
$GPGSV,3,1,12,04,18,063,29,05,17,299,46,06,42,193,43,07,57,131,47*71
$GPGSV,3,2,12,09,54,062,45,11,57,263,48,20,46,301,49,29,10,323,42*7E
$GPGSV,3,3,12,30,37,175,41,33,33,196,00,37,30,148,00,39,28,144,00*7E
$GPZDA,145228.70,09,08,2024,00,00*6C
$GPGGA,145228.70,4816.4678700,N,00332.2619340,W,1,09,,152.02,M,49.044,M,,*67
$GPRMC,145228.70,A,4816.4678700,N,00332.2619340,W,32.6002,118.399,090824,-1.0,W*7a
$GPGSA,A,3,4,5,6,7,9,11,,,,,,,,,*25
$GPZDA,145228.90,09,08,2024,00,00*62
$GPGGA,145228.90,4816.4670240,N,00332.2595460,W,1,09,,151.89,M,49.044,M,,*62
$GPRMC,145228.90,A,4816.4670240,N,00332.2595460,W,32.4603,118.015,090824,-1.0,W*7d
$GPGSA,A,3,4,5,6,7,9,11,,,,,,,,,*25
$GPZDA,145229.00,09,08,2024,00,00*6A
$GPGGA,145229.00,4816.4666040,N,00332.2583580,W,1,09,,151.84,M,49.044,M,,*6A
$GPRMC,145229.00,A,4816.4666040,N,00332.2583580,W,32.3592,117.930,090824,-1.0,W*75
$GPGSA,A,3,4,5,6,7,9,11,,,,,,,,,*25
$GPZDA,145229.10,09,08,2024,00,00*6B
$GPGGA,145229.10,4816.4661720,N,00332.2571760,W,1,09,,151.80,M,49.044,M,,*68
$GPRMC,145229.10,A,4816.4661720,N,00332.2571760,W,32.3883,118.389,090824,-1.0,W*79
$GPGSA,A,3,4,5,6,7,9,11,,,,,,,,,*25
$GPZDA,145229.20,09,08,2024,00,00*68
$GPGGA,145229.20,4816.4657400,N,00332.2559940,W,1,09,,151.78,M,49.044,M,,*6E
$GPRMC,145229.20,A,4816.4657400,N,00332.2559940,W,32.5341,118.525,090824,-1.0,W*7b
$GPGSA,A,3,4,5,6,7,9,11,,,,,,,,,*25
$GPZDA,145229.30,09,08,2024,00,00*69
$GPGGA,145229.30,4816.4653080,N,00332.2548120,W,1,09,,151.71,M,49.044,M,,*60
$GPRMC,145229.30,A,4816.4653080,N,00332.2548120,W,32.3164,118.638,090824,-1.0,W*70
$GPGSA,A,3,4,5,6,7,9,11,,,,,,,,,*25
$GPZDA,145229.40,09,08,2024,00,00*6E
$GPGGA,145229.40,4816.4648760,N,00332.2536420,W,1,09,,151.70,M,49.044,M,,*69
$GPRMC,145229.40,A,4816.4648760,N,00332.2536420,W,32.2620,118.782,090824,-1.0,W*7e
$GPGSA,A,3,4,5,6,7,9,11,,,,,,,,,*25
$GPZDA,145229.50,09,08,2024,00,00*6F
$GPGGA,145229.50,4816.4644440,N,00332.2524780,W,1,09,,151.69,M,49.044,M,,*67
$GPRMC,145229.50,A,4816.4644440,N,00332.2524780,W,32.2367,119.019,090824,-1.0,W*7a
$GPGSA,A,3,4,5,6,7,9,11,,,,,,,,,*25
$GPZDA,145229.60,09,08,2024,00,00*6C
$GPGGA,145229.60,4816.4640060,N,00332.2513080,W,1,09,,151.66,M,49.044,M,,*6A
$GPRMC,145229.60,A,4816.4640060,N,00332.2513080,W,32.2464,119.397,090824,-1.0,W*79
$GPGSA,A,3,4,5,6,7,9,11,,,,,,,,,*25
$GPGSV,3,1,12,04,18,063,36,05,17,299,44,06,42,193,45,07,57,131,46*7A
$GPGSV,3,2,12,09,54,062,45,11,57,263,48,20,46,301,49,29,10,323,30*7B
$GPGSV,3,3,12,30,37,175,41,33,33,196,00,37,30,148,00,39,28,144,00*7E
$GPZDA,145229.70,09,08,2024,00,00*6D
$GPGGA,145229.70,4816.4635740,N,00332.2501500,W,1,09,,151.60,M,49.044,M,,*64
$GPRMC,145229.70,A,4816.4635740,N,00332.2501500,W,32.0307,119.173,090824,-1.0,W*79
$GPGSA,A,3,4,5,6,7,9,11,,,,,,,,,*25
$GPZDA,145229.90,09,08,2024,00,00*63
$GPGGA,145229.90,4816.4627100,N,00332.2478220,W,1,09,,151.56,M,49.044,M,,*64
$GPRMC,145229.90,A,4816.4627100,N,00332.2478220,W,32.1356,118.960,090824,-1.0,W*72
$GPGSA,A,3,4,5,6,7,9,11,,,,,,,,,*25
$GPZDA,145230.00,09,08,2024,00,00*62
$GPGGA,145230.00,4816.4622720,N,00332.2466640,W,1,09,,151.51,M,49.044,M,,*6E
$GPRMC,145230.00,A,4816.4622720,N,00332.2466640,W,32.0112,119.263,090824,-1.0,W*75
$GPGSA,A,3,4,5,6,7,9,11,,,,,,,,,*25
$GPZDA,145230.10,09,08,2024,00,00*63
$GPGGA,145230.10,4816.4618400,N,00332.2455180,W,1,09,,151.48,M,49.044,M,,*64
$GPRMC,145230.10,A,4816.4618400,N,00332.2455180,W,31.7877,119.508,090824,-1.0,W*73
$GPGSA,A,3,4,5,6,7,9,11,,,,,,,,,*25
$GPZDA,145230.20,09,08,2024,00,00*60
$GPGGA,145230.20,4816.4613960,N,00332.2443660,W,1,09,,151.44,M,49.044,M,,*65
$GPRMC,145230.20,A,4816.4613960,N,00332.2443660,W,31.9024,119.759,090824,-1.0,W*78
$GPGSA,A,3,4,5,6,7,9,11,,,,,,,,,*25
$GPZDA,145230.30,09,08,2024,00,00*61
$GPGGA,145230.30,4816.4609640,N,00332.2432080,W,1,09,,151.39,M,49.044,M,,*66
$GPRMC,145230.30,A,4816.4609640,N,00332.2432080,W,31.8713,119.304,090824,-1.0,W*7f
$GPGSA,A,3,4,5,6,7,9,11,,,,,,,,,*25
$GPZDA,145230.40,09,08,2024,00,00*66
$GPGGA,145230.40,4816.4605140,N,00332.2420680,W,1,09,,151.37,M,49.044,M,,*61
$GPRMC,145230.40,A,4816.4605140,N,00332.2420680,W,31.8052,120.118,090824,-1.0,W*71
$GPGSA,A,3,4,5,6,7,9,11,,,,,,,,,*25
$GPZDA,145230.50,09,08,2024,00,00*67
$GPGGA,145230.50,4816.4600820,N,00332.2409100,W,1,09,,151.29,M,49.044,M,,*61
$GPRMC,145230.50,A,4816.4600820,N,00332.2409100,W,31.8654,119.523,090824,-1.0,W*78
$GPGSA,A,3,4,5,6,7,9,11,,,,,,,,,*25
$GPZDA,145230.60,09,08,2024,00,00*64
$GPGGA,145230.60,4816.4596320,N,00332.2397760,W,1,09,,151.26,M,49.043,M,,*6D
$GPRMC,145230.60,A,4816.4596320,N,00332.2397760,W,31.6788,120.242,090824,-1.0,W*78
$GPGSA,A,3,4,5,6,7,9,11,,,,,,,,,*25
$GPGSV,3,1,12,04,18,063,29,05,17,299,46,06,42,193,42,07,57,131,47*70
$GPGSV,3,2,12,09,54,062,45,11,57,263,45,20,46,301,48,29,10,323,29*7F
$GPGSV,3,3,12,30,37,175,44,33,33,196,00,37,30,148,00,39,28,144,00*7B
$GPZDA,145230.70,09,08,2024,00,00*65
$GPGGA,145230.70,4816.4591940,N,00332.2386300,W,1,09,,151.22,M,49.043,M,,*61
$GPRMC,145230.70,A,4816.4591940,N,00332.2386300,W,31.7002,119.991,090824,-1.0,W*7b
$GPGSA,A,3,4,5,6,7,9,11,,,,,,,,,*25
$GPZDA,145230.90,09,08,2024,00,00*6B
$GPGGA,145230.90,4816.4583120,N,00332.2363560,W,1,09,,151.16,M,49.043,M,,*6E
$GPRMC,145230.90,A,4816.4583120,N,00332.2363560,W,31.6866,119.964,090824,-1.0,W*72
$GPGSA,A,3,4,5,6,7,9,11,,,,,,,,,*25
$GPZDA,145231.00,09,08,2024,00,00*63
$GPGGA,145231.00,4816.4578860,N,00332.2352100,W,1,09,,151.14,M,49.043,M,,*6D
$GPRMC,145231.00,A,4816.4578860,N,00332.2352100,W,31.6536,119.557,090824,-1.0,W*77
$GPGSA,A,3,4,5,6,7,9,11,,,,,,,,,*25
$GPZDA,145231.10,09,08,2024,00,00*62
$GPGGA,145231.10,4816.4574480,N,00332.2340640,W,1,09,,151.06,M,49.043,M,,*61
$GPRMC,145231.10,A,4816.4574480,N,00332.2340640,W,31.6244,119.549,090824,-1.0,W*75
$GPGSA,A,3,4,5,6,7,9,11,,,,,,,,,*25
$GPZDA,145231.20,09,08,2024,00,00*61
$GPGGA,145231.20,4816.4570100,N,00332.2329180,W,1,09,,151.00,M,49.043,M,,*69
$GPRMC,145231.20,A,4816.4570100,N,00332.2329180,W,31.5991,119.596,090824,-1.0,W*79
$GPGSA,A,3,4,5,6,7,9,11,,,,,,,,,*25
$GPZDA,145231.30,09,08,2024,00,00*60
$GPGGA,145231.30,4816.4565840,N,00332.2317780,W,1,09,,150.99,M,49.043,M,,*6B
$GPRMC,145231.30,A,4816.4565840,N,00332.2317780,W,31.6069,119.509,090824,-1.0,W*71
$GPGSA,A,3,4,5,6,7,9,11,,,,,,,,,*25
$GPZDA,145231.40,09,08,2024,00,00*67
$GPGGA,145231.40,4816.4561520,N,00332.2306320,W,1,09,,150.95,M,49.043,M,,*61
$GPRMC,145231.40,A,4816.4561520,N,00332.2306320,W,31.5603,119.510,090824,-1.0,W*76
$GPGSA,A,3,4,5,6,7,9,11,,,,,,,,,*25
$GPZDA,145231.50,09,08,2024,00,00*66
$GPGGA,145231.50,4816.4557200,N,00332.2294920,W,1,09,,150.84,M,49.043,M,,*60
$GPRMC,145231.50,A,4816.4557200,N,00332.2294920,W,31.3717,119.303,090824,-1.0,W*71
$GPGSA,A,3,4,5,6,7,9,11,,,,,,,,,*25
$GPZDA,145231.60,09,08,2024,00,00*65
$GPGGA,145231.60,4816.4552940,N,00332.2283580,W,1,09,,150.82,M,49.043,M,,*6F
$GPRMC,145231.60,A,4816.4552940,N,00332.2283580,W,31.3834,119.380,090824,-1.0,W*7d
$GPGSA,A,3,4,5,6,7,9,11,,,,,,,,,*25
$GPGSV,3,1,12,04,18,063,33,05,17,299,46,06,42,193,46,07,57,131,47*7F
$GPGSV,3,2,12,09,54,062,46,11,57,263,48,20,46,301,49,29,10,323,36*7E
$GPGSV,3,3,12,30,37,175,44,33,33,196,00,37,30,148,00,39,28,144,00*7B
$GPZDA,145231.70,09,08,2024,00,00*64
$GPGGA,145231.70,4816.4548620,N,00332.2272180,W,1,09,,150.79,M,49.043,M,,*62
$GPRMC,145231.70,A,4816.4548620,N,00332.2272180,W,31.4533,119.335,090824,-1.0,W*77
$GPGSA,A,3,4,5,6,7,9,11,,,,,,,,,*25
$GPZDA,145231.90,09,08,2024,00,00*6A
$GPGGA,145231.90,4816.4540040,N,00332.2249440,W,1,09,,150.70,M,49.043,M,,*6C
$GPRMC,145231.90,A,4816.4540040,N,00332.2249440,W,31.2823,119.107,090824,-1.0,W*79
$GPGSA,A,3,4,5,6,7,9,11,,,,,,,,,*25
$GPZDA,145232.00,09,08,2024,00,00*60
$GPGGA,145232.00,4816.4535840,N,00332.2238100,W,1,09,,150.68,M,49.043,M,,*62
$GPRMC,145232.00,A,4816.4535840,N,00332.2238100,W,31.1929,119.020,090824,-1.0,W*72
$GPGSA,A,3,4,5,6,7,9,11,,,,,,,,,*25
$GPZDA,145232.10,09,08,2024,00,00*61
$GPGGA,145232.10,4816.4531580,N,00332.2226700,W,1,09,,150.61,M,49.043,M,,*66
$GPRMC,145232.10,A,4816.4531580,N,00332.2226700,W,31.2862,119.269,090824,-1.0,W*7d
$GPGSA,A,3,4,5,6,7,9,11,,,,,,,,,*25
$GPZDA,145232.20,09,08,2024,00,00*62
$GPGGA,145232.20,4816.4527440,N,00332.2215360,W,1,09,,150.60,M,49.043,M,,*6C
$GPRMC,145232.20,A,4816.4527440,N,00332.2215360,W,31.1404,118.953,090824,-1.0,W*7a
$GPGSA,A,3,4,5,6,7,9,11,,,,,,,,,*25
$GPZDA,145232.30,09,08,2024,00,00*63
$GPGGA,145232.30,4816.4523180,N,00332.2204080,W,1,09,,150.56,M,49.043,M,,*68
$GPRMC,145232.30,A,4816.4523180,N,00332.2204080,W,31.1773,119.139,090824,-1.0,W*7d
$GPGSA,A,3,4,5,6,7,9,11,,,,,,,,,*25
$GPZDA,145232.40,09,08,2024,00,00*64
$GPGGA,145232.40,4816.4519040,N,00332.2192740,W,1,09,,150.53,M,49.043,M,,*69
$GPRMC,145232.40,A,4816.4519040,N,00332.2192740,W,31.0801,119.106,090824,-1.0,W*7e
$GPGSA,A,3,4,5,6,7,9,11,,,,,,,,,*25
$GPZDA,145232.50,09,08,2024,00,00*65
$GPGGA,145232.50,4816.4514840,N,00332.2181400,W,1,09,,150.48,M,49.043,M,,*62
$GPRMC,145232.50,A,4816.4514840,N,00332.2181400,W,31.0685,118.836,090824,-1.0,W*76
$GPGSA,A,3,4,5,6,7,9,11,,,,,,,,,*25
$GPZDA,145232.60,09,08,2024,00,00*66
$GPGGA,145232.60,4816.4510640,N,00332.2170180,W,1,09,,150.47,M,49.043,M,,*67
$GPRMC,145232.60,A,4816.4510640,N,00332.2170180,W,31.0413,119.085,090824,-1.0,W*70
$GPGSA,A,3,4,5,6,7,9,11,,,,,,,,,*25
$GPGSV,3,1,12,04,18,063,29,05,17,299,47,06,42,193,46,07,57,131,47*75
$GPGSV,3,2,12,09,54,062,45,11,57,263,48,20,46,301,49,29,10,323,28*72
$GPGSV,3,3,12,30,37,175,44,33,33,196,00,37,30,148,00,39,28,144,00*7B
$GPZDA,145232.70,09,08,2024,00,00*67
$GPGGA,145232.70,4816.4506560,N,00332.2158900,W,1,09,,150.44,M,49.043,M,,*69
$GPRMC,145232.70,A,4816.4506560,N,00332.2158900,W,30.9402,118.902,090824,-1.0,W*72
$GPGSA,A,3,4,5,6,7,9,11,,,,,,,,,*25
$GPZDA,145232.90,09,08,2024,00,00*69
$GPGGA,145232.90,4816.4498340,N,00332.2136460,W,1,09,,150.40,M,49.043,M,,*62
$GPRMC,145232.90,A,4816.4498340,N,00332.2136460,W,30.7808,118.750,090824,-1.0,W*7c
$GPGSA,A,3,4,5,6,7,9,11,,,,,,,,,*25
$GPZDA,145233.00,09,08,2024,00,00*61
$GPGGA,145233.00,4816.4494200,N,00332.2125180,W,1,09,,150.37,M,49.043,M,,*6A
$GPRMC,145233.00,A,4816.4494200,N,00332.2125180,W,30.7886,118.777,090824,-1.0,W*77
$GPGSA,A,3,4,5,6,7,9,11,,,,,,,,,*25
$GPZDA,145233.10,09,08,2024,00,00*60
$GPGGA,145233.10,4816.4490120,N,00332.2114020,W,1,09,,150.33,M,49.043,M,,*63
$GPRMC,145233.10,A,4816.4490120,N,00332.2114020,W,30.7633,118.613,090824,-1.0,W*79
$GPGSA,A,3,4,5,6,7,9,11,,,,,,,,,*25
$GPZDA,145233.20,09,08,2024,00,00*63
$GPGGA,145233.20,4816.4486100,N,00332.2102860,W,1,09,,150.31,M,49.043,M,,*6C
$GPRMC,145233.20,A,4816.4486100,N,00332.2102860,W,30.4892,118.359,090824,-1.0,W*79
$GPGSA,A,3,4,5,6,7,9,11,,,,,,,,,*25
$GPZDA,145233.30,09,08,2024,00,00*62
$GPGGA,145233.30,4816.4482080,N,00332.2091760,W,1,09,,150.27,M,49.043,M,,*63
$GPRMC,145233.30,A,4816.4482080,N,00332.2091760,W,30.3901,118.567,090824,-1.0,W*76
$GPGSA,A,3,4,5,6,7,9,11,,,,,,,,,*25
$GPZDA,145233.40,09,08,2024,00,00*65
$GPGGA,145233.40,4816.4478000,N,00332.2080720,W,1,09,,150.25,M,49.043,M,,*6F
$GPRMC,145233.40,A,4816.4478000,N,00332.2080720,W,30.3045,118.825,090824,-1.0,W*7a
$GPGSA,A,3,4,5,6,7,9,11,,,,,,,,,*25
$GPZDA,145233.50,09,08,2024,00,00*64
$GPGGA,145233.50,4816.4474160,N,00332.2069680,W,1,09,,150.23,M,49.043,M,,*6F
$GPRMC,145233.50,A,4816.4474160,N,00332.2069680,W,30.0888,118.255,090824,-1.0,W*7b
$GPGSA,A,3,4,5,6,7,9,11,,,,,,,,,*25
$GPZDA,145233.60,09,08,2024,00,00*67
$GPGGA,145233.60,4816.4470080,N,00332.2058760,W,1,09,,150.20,M,49.043,M,,*69
$GPRMC,145233.60,A,4816.4470080,N,00332.2058760,W,30.0732,118.727,090824,-1.0,W*70
$GPGSA,A,3,4,5,6,7,9,11,,,,,,,,,*25
$GPGSV,3,1,12,04,18,063,28,05,17,299,46,06,42,193,38,07,57,131,47*7C
$GPGSV,3,2,12,09,54,062,46,11,57,263,48,20,46,301,49,29,10,323,00*7B
$GPGSV,3,3,12,30,37,175,35,33,33,196,00,37,30,148,00,39,28,144,00*7D
$GPZDA,145233.70,09,08,2024,00,00*66
$GPGGA,145233.70,4816.4466180,N,00332.2047720,W,1,08,,150.21,M,49.043,M,,*64
$GPRMC,145233.70,A,4816.4466180,N,00332.2047720,W,30.0810,118.351,090824,-1.0,W*77
$GPGSA,A,3,4,5,6,7,9,11,,,,,,,,,*25
$GPZDA,145233.90,09,08,2024,00,00*68
$GPGGA,145233.90,4816.4458380,N,00332.2026060,W,1,08,,150.15,M,49.043,M,,*66
$GPRMC,145233.90,A,4816.4458380,N,00332.2026060,W,29.5134,118.453,090824,-1.0,W*75
$GPGSA,A,3,4,5,6,7,9,11,,,,,,,,,*25
$GPZDA,145234.00,09,08,2024,00,00*66
$GPGGA,145234.00,4816.4454480,N,00332.2015320,W,1,08,,150.10,M,49.043,M,,*61
$GPRMC,145234.00,A,4816.4454480,N,00332.2015320,W,29.3968,118.474,090824,-1.0,W*75
$GPGSA,A,3,4,5,6,7,9,11,,,,,,,,,*25
$GPZDA,145234.10,09,08,2024,00,00*67
$GPGGA,145234.10,4816.4450640,N,00332.2004700,W,1,08,,150.08,M,49.043,M,,*65
$GPRMC,145234.10,A,4816.4450640,N,00332.2004700,W,29.0585,118.475,090824,-1.0,W*75
$GPGSA,A,3,4,5,6,7,9,11,,,,,,,,,*25
$GPZDA,145234.20,09,08,2024,00,00*64
$GPGGA,145234.20,4816.4446860,N,00332.1994080,W,1,08,,150.06,M,49.043,M,,*6F
$GPRMC,145234.20,A,4816.4446860,N,00332.1994080,W,28.9438,118.338,090824,-1.0,W*70
$GPGSA,A,3,4,5,6,7,9,11,,,,,,,,,*25
$GPZDA,145234.30,09,08,2024,00,00*65
$GPGGA,145234.30,4816.4443140,N,00332.1983580,W,1,08,,150.03,M,49.043,M,,*66
$GPRMC,145234.30,A,4816.4443140,N,00332.1983580,W,28.6523,118.087,090824,-1.0,W*7f
$GPGSA,A,3,4,5,6,7,9,11,,,,,,,,,*25
$GPZDA,145234.40,09,08,2024,00,00*62
$GPGGA,145234.40,4816.4439360,N,00332.1973260,W,1,08,,150.01,M,49.043,M,,*68
$GPRMC,145234.40,A,4816.4439360,N,00332.1973260,W,28.3996,118.740,090824,-1.0,W*78
$GPGSA,A,3,4,5,6,7,9,11,,,,,,,,,*25
$GPZDA,145234.50,09,08,2024,00,00*63
$GPGGA,145234.50,4816.4435640,N,00332.1962880,W,1,08,,149.97,M,49.042,M,,*60
$GPRMC,145234.50,A,4816.4435640,N,00332.1962880,W,28.1760,118.375,090824,-1.0,W*71
$GPGSA,A,3,4,5,6,7,9,11,,,,,,,,,*25
$GPZDA,145234.60,09,08,2024,00,00*60
$GPGGA,145234.60,4816.4431920,N,00332.1952740,W,1,08,,149.93,M,49.042,M,,*6A
$GPRMC,145234.60,A,4816.4431920,N,00332.1952740,W,27.8942,118.854,090824,-1.0,W*7f
$GPGSA,A,3,4,5,6,7,9,11,,,,,,,,,*25
$GPGSV,3,1,12,04,18,063,27,05,17,299,46,06,42,193,45,07,57,131,47*79
$GPGSV,3,2,12,09,54,062,45,11,57,263,47,20,46,301,48,29,10,323,32*77
$GPGSV,3,3,12,30,37,175,44,33,33,196,00,37,30,148,00,39,28,144,00*7B
$GPZDA,145234.70,09,08,2024,00,00*61
$GPGGA,145234.70,4816.4428200,N,00332.1942780,W,1,09,,149.91,M,49.042,M,,*64
$GPRMC,145234.70,A,4816.4428200,N,00332.1942780,W,27.5579,119.037,090824,-1.0,W*77
$GPGSA,A,3,4,5,6,7,9,11,,,,,,,,,*25
$GPZDA,145234.90,09,08,2024,00,00*6F
$GPGGA,145234.90,4816.4420820,N,00332.1923160,W,1,09,,149.84,M,49.042,M,,*61
$GPRMC,145234.90,A,4816.4420820,N,00332.1923160,W,26.9533,119.534,090824,-1.0,W*73
$GPGSA,A,3,4,5,6,7,9,11,,,,,,,,,*25
$GPZDA,145235.00,09,08,2024,00,00*67
$GPGGA,145235.00,4816.4417160,N,00332.1913620,W,1,09,,149.83,M,49.042,M,,*67
$GPRMC,145235.00,A,4816.4417160,N,00332.1913620,W,26.4577,119.788,090824,-1.0,W*7a
$GPGSA,A,3,4,5,6,7,9,11,,,,,,,,,*25
$GPZDA,145235.10,09,08,2024,00,00*66
$GPGGA,145235.10,4816.4413560,N,00332.1904200,W,1,09,,149.77,M,49.042,M,,*6D
$GPRMC,145235.10,A,4816.4413560,N,00332.1904200,W,26.1330,119.728,090824,-1.0,W*71
$GPGSA,A,3,4,5,6,7,9,11,,,,,,,,,*25
